,team_id,year,team_name,conference_id,conference,division,season_id,prev_team_id,ID,unitid,inst_name,state_abbr,latitude,longitude,url_athletes,member_conf_baseball,member_ncaa,member_naia,member_njcaa,conf_number_baseball,est_fte,level_of_study,ftpt,income_level,average_grant,net_price,number_applied,number_admitted,number_enrolled_total,sex,reqt_test_scores,sat_crit_read_75_pctl,sat_math_75_pctl,Acceptance_Rate,CONFNO3,Conference_Name,School,...1,instnm,stabbr,city,zip,ugds,insturl,tuitionfee_in,tuitionfee_out,locale,adm_rate,sat_avg,admcon7,npt4_pub,npt4_priv,npt45_pub,npt45_priv,year.x,NCAA_name
3,596477,2025,Abilene Christian,923,WAC,1,16779,2,2,222178,Abilene Christian University,TX,32.468943,-99.709797,www.acu.edu/about/consumer-information.html,Yes,Yes,No,No,137,3132,Undergraduate,Full-time,$110 ,23088,32133,8208,5755,833,Total,Considered,640,630,0.701145224,137,Western Athletic Conference,Abilene Christian University,3051,Abilene Christian University,TX,Abilene,79699,3129,www.acu.edu/,42380,42380,12,0.6388,1189,5,NA,27401,NA,32121,latest,Abilene Christian
5,596850,2025,Adelphi,899,NE10,2,16779,3,3,188429,Adelphi University,NY,40.721439,-73.653321,aupanthers.com/sports/2011/8/9/GEN_0809113017.aspx,Yes,Yes,No,No,153,5035,Undergraduate,Full-time,$110 ,25625,29941,16084,12459,1330,Total,Considered,650,660,0.774620741,153,Northeast 10 Conference,Adelphi University,1957,Adelphi University,NY,Garden City,11530-0701,5077,www.adelphi.edu/,47290,47290,21,0.7751,1224,5,NA,28348,NA,32093,latest,Adelphi
6,597209,2025,Adrian,873,Michigan Intercol. Ath. Assn.,3,16779,4,4,168528,Adrian College,MI,41.898591,-84.061481,NA,Yes,Yes,No,No,180,1687,Undergraduate,Full-time,$110 ,27957,28434,2736,2079,573,Total,Considered,580,570,0.759868421,180,Michigan Intercollegiate Athletic Association,Adrian College,1462,Adrian College,MI,Adrian,49221-2575,1635,www.adrian.edu/,40556,40556,32,0.6837,1030,5,NA,21504,NA,26926,latest,Adrian
8,596419,2025,Akron,875,MAC,1,16779,5,5,200800,University of Akron Main Campus,OH,41.078551,-81.511679,www.uakron.edu/ir/student-right-to-know.dot,Yes,Yes,No,No,119,10259,Undergraduate,Full-time,$110 ,4522,18957,11332,9623,2163,Total,Recommended,NA,NA,0.84918814,119,Mid-American Conference,University of Akron Main Campus,2368,University of Akron Main Campus,OH,Akron,44325-2102,10011,www.uakron.edu/,12799,17239,12,0.7091,1088,5,14981,NA,19698,NA,latest,Akron
10,596478,2025,Alabama A&M,916,SWAC,1,16779,6,6,100654,Alabama A & M University,AL,34.783368,-86.568502,NA,Yes,Yes,No,No,133,4315,Undergraduate,Full-time,$110 ,5628,17539,6560,4697,1534,Total,Considered,520,510,0.716006098,133,Southwestern Athletic Conference,Alabama A & M University,1,Alabama A & M University,AL,Normal,35762,5726,www.aamu.edu/,10024,18634,12,0.6622,947,5,14559,NA,18200,NA,latest,Alabama A&M
12,596479,2025,Alabama St.,916,SWAC,1,16779,7,7,100724,Alabama State University,AL,32.364317,-86.295677,www.alasu.edu/cost-aid/consumer-info,Yes,Yes,No,No,133,3394,Undergraduate,Full-time,$110 ,6310,15590,5974,5854,890,Total,Considered,534,516,0.979912956,133,Southwestern Athletic Conference,Alabama State University,5,Alabama State University,AL,Montgomery,36104-0271,3322,www.alasu.edu/,11248,19576,12,0.9564,977,5,13889,NA,11863,NA,latest,Alabama St.
9,596480,2025,Alabama,911,SEC,1,16779,8,8,100751,The University of Alabama,AL,33.211875,-87.545978,registrar.ua.edu/academics-policies/student-right-to-know/,Yes,Yes,No,No,130,29637,Undergraduate,Full-time,$110 ,7093,23931,42421,33472,7593,Total,Considered,680,690,0.789043163,130,Southeastern Conference,The University of Alabama,6,The University of Alabama,AL,Tuscaloosa,35487-0100,32323,www.ua.edu/,11900,33200,12,0.7582,1287,5,22150,NA,25773,NA,latest,Alabama
804,596481,2025,UAB,823,The American,1,16779,9,9,100663,University of Alabama at Birmingham,AL,33.505697,-86.799345,https://www.uab.edu/registrar/students,Yes,Yes,No,No,111,12105,Undergraduate,Full-time,$110 ,6915,19342,11906,10541,2415,Total,Considered,680,708,0.885351923,111,Conference USA,University of Alabama at Birmingham,2,University of Alabama at Birmingham,AL,Birmingham,35294-0110,12118,https://www.uab.edu/,8832,21864,12,0.8842,1251,5,17727,NA,21326,NA,latest,UAB
11,596851,2025,Alabama Huntsville,858,Gulf South,2,16779,10,10,100706,,,,,,,,,,,,,,,,,,,,,,,,,,,,,,,,,,,,,,,,,,,,,,
13,596852,2025,Albany St. (GA),913,SIAC,2,16779,13,13,138716,Albany State,NA,NA,NA,NA,NA,NA,NA,NA,NA,NA,NA,NA,NA,NA,NA,NA,NA,NA,NA,NA,NA,NA,NA,NA,NA,Albany State University,NA,NA,NA,NA,NA,NA,NA,NA,NA,NA,NA,NA,NA,NA,NA,NA,NA,NA,Albany St. (GA)
805,596482,2025,UAlbany,845,America East,1,16779,14,14,196060,SUNY at Albany,NY,42.685489,-73.824662,NA,Yes,Yes,No,No,101,12432,Undergraduate,Full-time,$110 ,3934,23434,21265,14458,3030,Total,Required,640,640,0.679896544,101,America East,SUNY at Albany,2166,University at Albany,NY,Albany,12222,12100,www.albany.edu/,10408,28998,12,0.6987,NA,5,18486,NA,25009,NA,latest,UAlbany
15,597210,2025,Albion,873,Michigan Intercol. Ath. Assn.,3,16779,15,15,168546,Albion College,MI,42.245049,-84.745639,NA,Yes,Yes,No,No,180,1549,Undergraduate,Full-time,$110 ,39797,27008,6591,4566,468,Total,Neither required nor recommended,NA,NA,0.692762858,180,Michigan Intercollegiate Athletic Association,Albion College,1463,Albion College,MI,Albion,49224,1347,www.albion.edu/,55746,55746,32,0.8316,NA,3,NA,16882,NA,25793,latest,Albion
16,597211,2025,Albright,28744,MAC Commonwealth,3,16779,16,16,210571,Albright College,PA,40.361351,-75.909742,NA,Yes,Yes,No,No,207,1410,Undergraduate,Full-time,$110 ,12463,30370,5788,4417,342,Total,Recommended,NA,NA,0.763130615,207,Commonwealth Conference,Albright College,2645,Albright College,PA,Reading,19612-5234,1296,www.albright.edu/home/,28794,28794,13,0.8615,NA,3,NA,21664,NA,28680,latest,Albright
17,596483,2025,Alcorn,916,SWAC,1,16779,17,17,175342,Alcorn State University,MS,31.877216,-91.142854,NA,Yes,Yes,No,No,133,2484,Undergraduate,Full-time,$110 ,9168,14894,4819,1875,402,Total,Required,538,535,0.389084872,133,Southwestern Athletic Conference,Alcorn State University,1632,Alcorn State University,MS,Alcorn State,39096-7500,2290,www.alcorn.edu/,8549,8549,43,0.2466,1039,1,14040,NA,12089,NA,latest,Alcorn
18,597360,2025,Alfred,863,Empire 8,3,16779,18,18,188641,Alfred University,NA,NA,NA,NA,NA,NA,NA,NA,NA,NA,NA,NA,NA,NA,NA,NA,NA,NA,NA,NA,NA,NA,NA,NA,NA,Alfred University,NA,NA,NA,NA,NA,NA,NA,NA,NA,NA,NA,NA,NA,NA,NA,NA,NA,NA,Alfred
20,597212,2025,Allegheny,907,PAC,3,16779,19,19,210669,Allegheny College,PA,41.64869,-80.147168,NA,Yes,Yes,No,No,189,1626,Undergraduate,Full-time,$110 ,37795,31558,4667,3521,408,Total,Considered,680,670,0.754446111,189,North Coast Athletic Conference,Allegheny College,2648,Allegheny College,PA,Meadville,16335-3902,1209,https://allegheny.edu/,54960,54960,32,0.5853,1292,5,NA,21900,NA,28466,latest,Allegheny
197,597213,2025,DeSales,28745,MAC Freedom,3,16779,20,20,210739,DeSales University,PA,40.539091,-75.375608,NA,Yes,Yes,No,No,181,2410,Undergraduate,Full-time,$110 ,24700,32228,3554,2780,516,Total,Considered,640,620,0.78221722,181,Middle Atlantic States Athletic Corporation,DeSales University,2650,DeSales University,PA,Center Valley,18034-9568,2113,www.desales.edu/,44800,44800,21,0.7858,1199,5,NA,30465,NA,33532,latest,DeSales
21,597214,2025,Alma,873,Michigan Intercol. Ath. Assn.,3,16779,21,21,168591,Alma College,MI,43.38004,-84.672053,NA,Yes,Yes,No,No,180,1425,Undergraduate,Full-time,$110 ,32076,26581,2908,2000,319,Total,Neither required nor recommended,NA,NA,0.687757909,180,Michigan Intercollegiate Athletic Association,Alma College,1466,Alma College,MI,Alma,48801-1599,1208,www.alma.edu/,47430,47430,32,0.6566,NA,3,NA,24663,NA,26994,latest,Alma
23,596853,2025,American Int'l,899,NE10,2,16779,22,22,164447,American International College,MA,42.112346,-72.558338,aicyellowjackets.com/sports/2009/1/9/Comp_0109090139.aspx?id=93,Yes,Yes,No,No,153,1170,Undergraduate,Full-time,$110 ,32243,20993,2369,2013,342,Total,Considered,555,555,0.849725623,153,Northeast 10 Conference,American International College,1353,American International College,MA,Springfield,1109,1097,www.aic.edu/,42970,42970,12,0.969,NA,3,NA,25299,NA,37851,latest,American Int'l
24,597215,2025,Amherst,12817,NESCAC,3,16779,24,24,164465,Amherst College,MA,42.372459,-72.518493,NA,Yes,Yes,No,No,185,2141,Undergraduate,Full-time,$110 ,29207,50853,13999,1224,515,Total,Considered,760,790,0.087434817,185,New England Small College Athletic Conference,Amherst College,1354,Amherst College,MA,Amherst,01002-5000,1907,www.amherst.edu/,67280,67280,13,0.0982,1494,5,NA,18246,NA,50358,latest,Amherst
27,596854,2025,Angelo St.,868,Lone Star,2,16779,25,25,222831,Angelo State University,TX,31.440914,-100.465051,www.angelosports.com/,Yes,Yes,No,No,147,6516,Undergraduate,Full-time,$110 ,2353,18821,3515,2463,1286,Total,Considered,590,570,0.700711238,147,Lone Star Conference,Angelo State University,3056,Angelo State University,TX,San Angelo,76909,5515,www.angelo.edu/,8319,18399,13,0.7923,1049,5,12915,NA,20902,NA,latest,Angelo St.
28,597216,2025,Anna Maria,23257,Great Northeast,3,16779,26,26,164492,Anna Maria College,MA,42.330542,-71.91896,NA,Yes,Yes,No,No,174,963,Undergraduate,Full-time,$110 ,27514,28080,2519,1835,187,Total,Neither required nor recommended,NA,NA,0.728463676,174,Great Northeast Athletic Conference,Anna Maria College,1355,Anna Maria College,MA,Paxton,01612-1198,948,www.annamaria.edu/,43064,43064,41,0.8956,NA,5,NA,29396,NA,33624,latest,Anna Maria
29,596484,2025,App State,818,Sun Belt,1,16779,27,27,197869,Appalachian State University,NC,36.215536,-81.680583,appstatesports.com/documents/2021/2/22//GSR_FGR_02_22_2021.pdf?id=12626,Yes,Yes,No,No,134,18287,Undergraduate,Full-time,$110 ,602,20133,21120,17886,4099,Total,Considered,650,650,0.846875,134,Sun Belt Conference,Appalachian State University,2225,Appalachian State University,NC,Boone,28608,19304,https://www.appstate.edu/,7541,24537,32,0.8864,1187,5,16487,NA,21991,NA,latest,App State
32,596485,2025,Arizona St.,25354,Big 12,1,16779,28,28,104151,Arizona State University Campus Immersion,AZ,33.417721,-111.934383,www.ncaa.org/about/resources/research/graduation-rates,Yes,Yes,No,No,127,64561,Undergraduate,Full-time,$110 ,6471,20466,61603,54329,14250,Total,Neither required nor recommended,NA,NA,0.881921335,127,Pacific-12 Conference,Arizona State University Campus Immersion,71,Arizona State University Campus Immersion,AZ,Tempe,85287,64398,www.asu.edu/,12051,32193,12,0.9019,NA,3,13670,NA,21772,NA,latest,Arizona St.
31,596706,2025,Arizona,25354,Big 12,1,16779,29,29,104179,University of Arizona,AZ,32.232672,-110.950815,https://arizonawildcats.com/documents/2021/3/10/University_of_Arizona_GSR_Report.pdf?id=26908,Yes,Yes,No,No,127,37078,Undergraduate,Full-time,$110 ,7452,20230,48065,41946,8436,Total,Considered,680,690,0.872693228,127,Pacific-12 Conference,University of Arizona,73,University of Arizona,AZ,Tucson,85721-0066,40769,https://www.arizona.edu/,13626,41095,11,0.8566,1261,5,15960,NA,20936,NA,latest,Arizona
37,596486,2025,Arkansas St.,818,Sun Belt,1,16779,30,30,106458,Arkansas State University,AR,35.842388,-90.679988,www.astate.edu/dotAsset/0376d7cd-f2e2-494a-9e75-2979708dc04d.pdf,Yes,Yes,No,No,134,7627,Undergraduate,Full-time,$110 ,5334,15842,5835,3693,1301,Total,Required,590,610,0.632904884,134,Sun Belt Conference,Arkansas State University,114,Arkansas State University,AR,Jonesboro,72401,7994,www.astate.edu/,7754,13826,13,0.6967,1119,5,13085,NA,17431,NA,latest,Arkansas St.
36,596487,2025,Arkansas,911,SEC,1,16779,31,31,106397,University of Arkansas,AR,36.070009,-94.176981,https://catalog.uark.edu/undergraduatecatalog/academicregulations/graduationrates/,Yes,Yes,No,No,130,22542,Undergraduate,Full-time,$110 ,4518,20093,21462,17743,6065,Total,Required,620,600,0.826716988,130,Southeastern Conference,University of Arkansas,111,University of Arkansas,AR,Fayetteville,72701,27312,https://www.uark.edu/,9748,28772,13,0.7167,1174,5,17525,NA,20991,NA,latest,Arkansas
408,596488,2025,Little Rock,902,OVC,1,16779,32,32,106245,University of Arkansas at Little Rock,AR,34.723254,-92.339778,ualr.edu/institutionalresearch/student-right-know/,Yes,Yes,No,No,134,4667,Undergraduate,Full-time,$110 ,0,21300,3786,2184,481,Total,Required,590,590,0.576862124,134,Sun Belt Conference,University of Arkansas at Little Rock,104,University of Arkansas at Little Rock,AR,Little Rock,72204,4740,ualr.edu/www/,8455,19210,12,0.5774,1049,1,16136,NA,21013,NA,latest,Little Rock
41,596855,2025,Ashland,30182,G-MAC,2,16779,35,35,201104,Ashland University,OH,40.861755,-82.321061,https://www.ashland.edu/administration/student-accounts/policy-statements/consumer-information,Yes,Yes,No,No,371,2854,Undergraduate,Full-time,$110 ,15969,20853,4318,3023,699,Total,Considered,640,610,0.700092635,371,Great Midwest Athletic Conference,Ashland University,2374,Ashland University,OH,Ashland,44805,2250,https://www.ashland.edu/,28910,28910,31,0.8057,1119,5,NA,21994,NA,22527,latest,Ashland
42,596856,2025,Assumption,899,NE10,2,16779,36,36,164562,Assumption University,MA,42.294226,-71.828991,www.assumptiongreyhounds.com/athletics/compliance/index,Yes,Yes,No,No,153,1902,Undergraduate,Full-time,$110 ,28777,31485,4018,3475,415,Total,Neither required nor recommended,NA,NA,0.864858138,153,Northeast 10 Conference,Assumption University,1357,Assumption University,MA,Worcester,01609-1296,1664,https://www.assumption.edu/,49414,49414,12,0.8654,NA,3,NA,28853,NA,32130,latest,Assumption
43,596489,2025,Auburn,911,SEC,1,16779,37,37,100858,Auburn University,AL,32.599378,-85.488258,https://auburn.edu/administration/ir/factbook/retention-performance/athlete-graduation-rates.html,Yes,Yes,No,No,130,24362,Undergraduate,Full-time,$110 ,4774,28876,27619,19660,5311,Total,Recommended,NA,NA,0.711828813,130,Southeastern Conference,Auburn University,10,Auburn University,AL,Auburn,36849,25732,www.auburn.edu/,12536,33944,13,0.5047,1318,5,23897,NA,29310,NA,latest,Auburn
44,597217,2025,Augsburg,882,MIAC,3,16779,38,38,173045,Augsburg University,MN,44.966307,-93.240436,NA,Yes,Yes,No,No,183,2453,Undergraduate,Full-time,$110 ,25974,29957,3525,2692,541,Total,Considered,623,753,0.763687943,183,Minnesota Intercollegiate Athletic Conference,Augsburg University,1563,Augsburg University,MN,Minneapolis,55454,2429,www.augsburg.edu/,43942,43942,11,0.7653,NA,3,NA,23875,NA,30427,latest,Augsburg
45,596857,2025,Augusta,12923,Peach Belt,2,16779,39,39,482149,Augusta University,GA,33.47037,-81.989071,augusta.edu/about/consumer-information.php,Yes,Yes,No,No,157,4901,Undergraduate,Full-time,$110 ,5098,16826,5442,3988,1044,Total,Required,660,640,0.732818817,157,Peach Belt Conference,Augusta University,5164,Augusta University,GA,Augusta,30912,5282,www.augusta.edu/,8122,23500,12,0.8931,1113,1,13347,NA,16901,NA,latest,Augusta
46,597218,2025,Augustana (IL),836,CCIW,3,16779,40,40,143084,Augustana College,IL,41.502365,-90.55057,www.augustana.edu/admissions/financial-aid/consumer,Yes,Yes,No,No,167,2461,Undergraduate,Full-time,$110 ,50368,8894,6640,4590,649,Total,Recommended,NA,NA,0.69126506,167,College Conference of Illinois and Wisconsin,Augustana College,814,Augustana College,IL,Rock Island,61201-2296,2418,www.augustana.edu/,49834,49834,13,0.6765,1133,5,NA,12437,NA,6658,latest,Augustana (IL)
47,596858,2025,Augustana (SD),12853,NSIC,2,16779,41,41,219000,Augustana University,SD,43.525148,-96.736975,www.goaugie.com/sports/2008/9/12/compliance.aspx,Yes,Yes,No,No,155,1661,Undergraduate,Full-time,$110 ,26143,25470,2257,1621,467,Total,Considered,640,660,0.718210013,155,Northern Sun Intercollegiate Conference,Augustana University,2937,Augustana University,SD,Sioux Falls,57197-0001,1818,www.augie.edu/,39190,39190,12,0.5925,1187,5,NA,24723,NA,26388,latest,Augustana (SD)
48,597219,2025,Aurora,30097,NACC,3,16779,42,42,143118,Aurora University,IL,41.753631,-88.349023,NA,Yes,Yes,No,No,359,4253,Undergraduate,Full-time,$110 ,14115,23897,3101,2680,822,Total,Considered,570,560,0.864237343,359,Northern Athletics Collegiate Conference,Aurora University,815,Aurora University,IL,Aurora,60506-4892,4021,https://aurora.edu/,28220,28220,21,0.8514,1072,5,NA,18992,NA,25042,latest,Aurora
50,596490,2025,Austin Peay,920,ASUN,1,16779,43,43,219602,Austin Peay State University,TN,36.533319,-87.354081,NA,Yes,Yes,No,No,126,6957,Undergraduate,Full-time,$110 ,5024,20780,5053,4721,1429,Total,Required,NA,NA,0.934296458,126,Ohio Valley Conference,Austin Peay State University,2965,Austin Peay State University,TN,Clarksville,37044,7365,www.apsu.edu/,8675,14219,12,0.9595,1050,5,14846,NA,19140,NA,latest,Austin Peay
51,597220,2025,Averett,903,ODAC,3,16779,44,44,231420,Averett University,VA,36.577287,-79.413203,NA,Yes,Yes,No,No,171,1060,Undergraduate,Full-time,$110 ,22113,28127,3462,1652,231,Total,Considered,570,585,0.47718082,171,USA South Athletic Conference,Averett University,3260,Averett University,VA,Danville,24541,1162,https://www.averett.edu/,38550,38550,32,0.478,1054,5,NA,23262,NA,27470,latest,Averett
54,597221,2025,Babson,890,NEWMAC,3,16779,45,45,164580,Babson College,MA,42.297017,-71.264057,https://babsonathletics.com/information/compliance,Yes,Yes,No,No,186,2916,Undergraduate,Full-time,$110 ,21057,55303,7104,1801,650,Total,Considered,710,770,0.253519144,186,New England Women's & Men's Athletic Conference,Babson College,1358,Babson College,MA,Wellesley,02457-0310,2696,www.babson.edu/,56032,56032,21,0.1974,1435,5,NA,38876,NA,58685,latest,Babson
55,597222,2025,Baldwin Wallace,901,OAC,3,16779,46,46,201195,Baldwin Wallace University,OH,41.373017,-81.851145,NA,Yes,Yes,No,No,191,2788,Undergraduate,Full-time,$110 ,22455,31232,4250,3358,730,Total,Considered,630,620,0.790117647,191,Ohio Athletic Conference,Baldwin Wallace University,2379,Baldwin Wallace University,OH,Berea,44017-2088,2775,https://www.bw.edu/,37938,37938,21,0.7685,1176,5,NA,27654,NA,30725,latest,Baldwin Wallace
56,596491,2025,Ball St.,875,MAC,1,16779,47,47,150136,Ball State University,IN,40.203431,-85.409043,cms.bsu.edu/about/administrativeoffices/effectiveness/universityinformation/studentconsumer/studentoutcomes,Yes,Yes,No,No,119,13867,Undergraduate,Full-time,$110 ,3068,21410,22947,15642,3278,Total,Considered,610,600,0.681657733,119,Mid-American Conference,Ball State University,968,Ball State University,IN,Muncie,47306,13770,https://www.bsu.edu/,10758,28766,13,0.716,1172,5,15898,NA,21756,NA,latest,Ball St.
146,596492,2025,Charleston So.,826,Big South,1,16779,48,48,217688,Charleston Southern University,SC,32.983047,-80.072587,NA,Yes,Yes,No,No,106,2707,Undergraduate,Full-time,$110 ,24024,18786,3940,2254,690,Total,Considered,620,580,0.572081218,106,Big South Conference,Charleston Southern University,2880,Charleston Southern University,SC,Charleston,29406-9121,2716,https://www.charlestonsouthern.edu/,31030,31030,12,0.7609,1056,5,NA,21955,NA,23804,latest,Charleston So.
58,596859,2025,Barry,919,Sunshine State,2,16779,49,49,132471,Barry University,FL,25.878908,-80.198925,gobarrybucs.com/sports/2016/5/25/academic-success.aspx?path=academics,Yes,Yes,No,No,162,2684,Undergraduate,Full-time,$110 ,18073,26412,10651,6784,716,Total,Recommended,NA,NA,0.636935499,162,Sunshine State Conference,Barry University,586,Barry University,FL,Miami,33161-6695,2245,www.barry.edu/,33450,33450,21,0.5907,NA,3,NA,22978,NA,29647,latest,Barry
61,597223,2025,Bates,12817,NESCAC,3,16779,50,50,160977,Bates College,ME,44.105299,-70.203333,NA,Yes,Yes,No,No,185,481,Undergraduate,Full-time,$110 ,32184,45686,7319,1267,553,Total,Neither required nor recommended,NA,NA,0.173111081,185,New England Small College Athletic Conference,Bates College,1273,Bates College,ME,Lewiston,4240,1753,www.bates.edu/,63478,63478,13,0.1302,1446,5,NA,30703,NA,49109,latest,Bates
62,596493,2025,Baylor,25354,Big 12,1,16779,51,51,223232,Baylor University,TX,31.546872,-97.121041,www.baylor.edu/ir/index.php?id=84791,Yes,Yes,No,No,108,15570,Undergraduate,Full-time,$110 ,23708,44827,36588,20741,4271,Total,Considered,670,680,0.566879851,108,Big Twelve Conference,Baylor University,3066,Baylor University,TX,Waco,76798,15007,www.baylor.edu/,54844,54844,12,0.5099,1313,5,NA,41942,NA,47442,latest,Baylor
64,596693,2025,Bellarmine,920,ASUN,1,16779,52,52,156286,Bellarmine University,KY,38.219279,-85.704997,https://www.bellarmine.edu/about/consumer/athletics/,Yes,Yes,No,No,135,2420,Undergraduate,Full-time,$110 ,32823,25255,4228,3615,593,Total,Considered,640,640,0.855014191,135,Atlantic Sun Conference,Bellarmine University,1161,Bellarmine University,KY,Louisville,40205-0671,2286,https://www.bellarmine.edu/,47180,47180,11,0.9359,1208,5,NA,23587,NA,29302,latest,Bellarmine
67,597224,2025,Beloit,23119,MWC,3,16779,53,53,238333,Beloit College,WI,42.504022,-89.029285,www.beloit.edu/offices/institutional-research-assessment-planning/key-metrics/,Yes,Yes,No,No,182,1042,Undergraduate,Full-time,$110 ,40010,26926,3279,2206,290,Total,Considered,680,710,0.672766087,182,Midwest Conference,Beloit College,3449,Beloit College,WI,Beloit,53511-5595,898,www.beloit.edu/,58554,58554,13,0.5736,1318,5,NA,21924,NA,28465,latest,Beloit
68,596860,2025,Bemidji St.,12853,NSIC,2,16779,54,54,173124,Bemidji State University,MN,47.482341,-94.874119,https://www.bemidjistate.edu/offices/student-life-success/handbook/student-consumer-information/student-outcomes/,Yes,Yes,No,No,155,3148,Undergraduate,Full-time,$110 ,1522,20418,2571,1927,538,Total,Required,NA,NA,0.749513808,155,Northern Sun Intercollegiate Conference,Bemidji State University,1566,Bemidji State University,MN,Bemidji,56601,3120,https://www.bemidjistate.edu/,10164,10164,33,0.7066,1090,5,17050,NA,21518,NA,latest,Bemidji St.
69,596861,2025,Benedict,913,SIAC,2,16779,55,55,217721,Benedict College,SC,34.012941,-81.020403,NA,Yes,Yes,No,No,161,1961,Undergraduate,Full-time,$110 ,8806,21120,9322,7971,584,Total,Recommended,NA,NA,0.855074018,161,Southern Intercollegiate Athletic Conference,Benedict College,2882,Benedict College,SC,Columbia,29204-1086,1573,www.benedict.edu/,18000,18000,12,0.673,910,5,NA,17781,NA,24076,latest,Benedict
71,596862,2025,Bentley,899,NE10,2,16779,56,56,167394,College of Our Lady of the Elms,MA,42.141781,-72.60154,NA,Yes,Yes,No,No,174,963,Undergraduate,Full-time,$110 ,23944,26031,1565,1063,184,Total,Considered,605,590,0.679233227,174,Great Northeast Athletic Conference,College of Our Lady of the Elms,1435,College of Our Lady of the Elms,MA,Chicopee,1013,951,https://www.elms.edu/,42061,42061,21,0.8766,1240,5,NA,21436,NA,27882,latest,Bentley
60,597225,2025,Baruch,834,CUNYAC,3,16779,58,58,190512,CUNY Bernard M Baruch College,NY,40.740238,-73.983417,www.baruch.cuny.edu/ir/links.htm,Yes,Yes,No,No,166,14045,Undergraduate,Full-time,$110 ,753,12787,23434,11849,2532,Total,Neither required nor recommended,NA,NA,0.505632841,166,City University of New York Athletic Conference,CUNY Bernard M Baruch College,2012,CUNY Bernard M Baruch College,NY,New York,10010,15734,www.baruch.cuny.edu/,7464,15414,11,0.5048,1310,5,2978,NA,12757,NA,latest,Baruch
74,597226,2025,Bethany (WV),907,PAC,3,16779,59,59,237181,Bethany College,KS,38.580598,-97.67367,https://www.bethanylb.edu/about/student-consumer-information/,Yes,No,Yes,No,309,674,Undergraduate,Full-time,$110 ,22856,27780,2627,1888,256,Total,Considered,495,520,0.718690522,309,Kansas Collegiate Athletic Conference,Bethany College,1102,Bethany College,KS,Lindsborg,67456-1897,583,https://www.bethanylb.edu/,31946,31946,43,0.786,NA,5,NA,29203,NA,32651,latest,Bethany (WV)
76,597227,2025,Bethel (MN),882,MIAC,3,16779,60,60,173160,Bethel University,NA,NA,NA,NA,NA,NA,NA,NA,NA,NA,NA,NA,NA,NA,NA,NA,NA,NA,NA,NA,NA,NA,NA,NA,NA,NA,NA,NA,NA,NA,NA,NA,NA,NA,NA,NA,NA,NA,NA,NA,NA,NA,NA,NA,Bethel (MN)
77,596494,2025,Bethune-Cookman,916,SWAC,1,16779,61,61,132602,Bethune-Cookman University,FL,29.207195,-81.032946,www.cookman.edu/documents/oirpa/Institutional Profile Fall 2013.pdf,Yes,Yes,No,No,133,2493,Undergraduate,Full-time,$110 ,7972,21579,5577,5568,812,Total,Required,510,480,0.998386229,133,Southwestern Athletic Conference,Bethune-Cookman University,587,Bethune-Cookman University,FL,Daytona Beach,32114-3099,2414,https://www.cookman.edu/,14794,14794,13,0.9985,913,5,NA,14892,NA,20662,latest,Bethune-Cookman
78,596495,2025,Binghamton,845,America East,1,16779,62,62,196079,Binghamton University,NY,42.087868,-75.966889,www.bubearcats.com/sports/2014/12/4/GEN_1204141201.aspx,Yes,Yes,No,No,101,15308,Undergraduate,Full-time,$110 ,1512,27631,39533,17455,3089,Total,Considered,720,750,0.441529861,101,America East,Binghamton University,2167,Binghamton University,NY,Vestal,13850-6000,14401,www.binghamton.edu/,10363,29453,22,0.3773,1415,5,21364,NA,28008,NA,latest,Binghamton
80,597228,2025,Blackburn,12974,SLIAC,3,16779,64,64,143288,Blackburn College,IL,39.287896,-89.870241,NA,Yes,Yes,No,No,195,418,Undergraduate,Full-time,$110 ,7568,28158,453,300,77,Total,Considered,590,535,0.662251656,195,St. Louis Intercollegiate Athletic Conference,Blackburn College,819,Blackburn College,IL,Carlinville,62626,341,www.blackburn.edu/,26758,26758,32,0.8014,NA,3,NA,21814,NA,25005,latest,Blackburn
82,596863,2025,Bloomsburg,906,PSAC,2,16779,65,65,498562,NA,NA,NA,NA,NA,NA,NA,NA,NA,NA,NA,NA,NA,NA,NA,NA,NA,NA,NA,NA,NA,NA,NA,NA,NA,NA,Bloomsburg University of Pennsylvania,NA,NA,NA,NA,NA,NA,NA,NA,NA,NA,NA,NA,NA,NA,NA,NA,NA,NA,Bloomsburg
85,596496,2025,Boston College,821,ACC,1,16779,67,67,164924,Boston College,MA,42.336213,-71.169242,NA,Yes,Yes,No,No,102,10192,Undergraduate,Full-time,$110 ,25099,55461,39846,7587,2516,Total,Considered,750,780,0.190408071,102,Atlantic Coast Conference,Boston College,1367,Boston College,MA,Chestnut Hill,2467,9865,www.bc.edu/,67680,67680,13,0.1565,1501,5,NA,39866,NA,56247,latest,Boston College
86,597229,2025,Bowdoin,12817,NESCAC,3,16779,69,69,161004,Bowdoin College,ME,43.907134,-69.963942,NA,Yes,Yes,No,No,185,1866,Undergraduate,Full-time,$110 ,37447,38863,9325,822,517,Total,Considered,770,780,0.088150134,185,New England Small College Athletic Conference,Bowdoin College,1275,Bowdoin College,ME,Brunswick,4011,1846,https://www.bowdoin.edu/,64910,64910,31,0.0802,1514,5,NA,20786,NA,42867,latest,Bowdoin
87,596497,2025,Bowling Green,875,MAC,1,16779,71,71,201441,Bowling Green State University-Main Campus,OH,41.375513,-83.640896,https://bgsufalcons.com/,Yes,Yes,No,No,119,13082,Undergraduate,Full-time,$110 ,4138,23583,18295,14404,2760,Total,Considered,610,600,0.78731894,119,Mid-American Conference,Bowling Green State University-Main Campus,2383,Bowling Green State University-Main Campus,OH,Bowling Green,43403,12255,www.bgsu.edu/,14081,22070,31,0.8061,1118,5,20918,NA,23945,NA,latest,Bowling Green
88,596498,2025,Bradley,884,MVC,1,16779,72,72,143358,Bradley University,IL,40.696896,-89.616786,www.bradleybraves.com/,Yes,Yes,No,No,123,4190,Undergraduate,Full-time,$110 ,20979,29902,10109,7669,1043,Total,Considered,640,640,0.758630923,123,Missouri Valley Conference,Bradley University,821,Bradley University,IL,Peoria,61625-0001,3865,www.bradley.edu/,39680,39680,12,0.7666,1237,5,NA,23572,NA,29736,latest,Bradley
89,597230,2025,Brandeis,1471,UAA,3,16779,73,73,165015,Brandeis University,MA,42.365727,-71.260155,NA,Yes,Yes,No,No,200,4021,Undergraduate,Full-time,$110 ,23682,55660,9796,3834,943,Total,Considered,750,780,0.391384238,200,University Athletic Association,Brandeis University,1369,Brandeis University,MA,Waltham,02454-9110,3663,https://www.brandeis.edu/,64946,64946,13,0.3531,1473,5,NA,33885,NA,53720,latest,Brandeis
91,596864,2025,Bridgeport,28752,CACC,2,16779,74,74,128744,University of Bridgeport,CT,41.164741,-73.190166,NA,Yes,Yes,No,No,151,1610,Undergraduate,Full-time,$110 ,28397,25352,4940,3613,238,Total,Considered,570,560,0.731376518,151,East Coast Conference,University of Bridgeport,530,University of Bridgeport,CT,Bridgeport,06604-5620,1450,www.bridgeport.edu/,35760,35760,12,0.6431,985,5,NA,24786,NA,27063,latest,Bridgeport
92,597231,2025,Bridgewater (VA),903,ODAC,3,16779,75,75,231581,Bridgewater College,VA,38.378484,-78.969007,NA,Yes,Yes,No,No,192,1411,Undergraduate,Full-time,$110 ,31482,22318,3388,2544,398,Total,Considered,620,630,0.750885478,192,Old Dominion Athletic Conference,Bridgewater College,3263,Bridgewater College,VA,Bridgewater,22812-1599,1388,https://www.bridgewater.edu/,41350,41350,23,0.9081,1225,5,NA,20173,NA,21465,latest,Bridgewater (VA)
93,597232,2025,Bridgewater St.,870,MASCAC,3,16779,76,76,165024,Bridgewater State University,MA,41.98749,-70.974553,https://catalog.bridgew.edu/content.php?catoid=16&navoid=1794,Yes,Yes,No,No,179,7495,Undergraduate,Full-time,$110 ,2322,22496,8881,7671,1382,Total,Considered,610,590,0.863754082,179,Massachusetts State College Athletic Association,Bridgewater State University,1370,Bridgewater State University,MA,Bridgewater,2325,7899,www.bridgew.edu/,11389,17529,21,0.8919,1127,5,17970,NA,22091,NA,latest,Bridgewater St.
53,596499,2025,BYU,25354,Big 12,1,16779,77,77,230038,Brigham Young University,UT,40.250851,-111.649281,NA,Yes,Yes,No,No,136,30683,Undergraduate,Full-time,$110 ,764,19055,11608,6870,5413,Total,Considered,720,720,0.591833218,136,West Coast Conference,Brigham Young University,3224,Brigham Young University,UT,Provo,84602,32221,https://byu.edu/,6496,6496,12,0.6919,1376,5,NA,14487,NA,20042,latest,BYU
662,597233,2025,SUNY Brockport,863,Empire 8,3,16779,78,78,196121,SUNY Brockport,NY,43.211926,-77.947188,NA,Yes,Yes,No,No,199,5282,Undergraduate,Full-time,$110 ,2406,21646,7800,5963,1002,Total,Considered,610,620,0.764487179,199,State University of New York Athletic Conference,SUNY Brockport,2172,SUNY Brockport,NY,Brockport,14420-2919,5381,https://www.brockport.edu/,8678,15748,31,0.7129,1147,5,15844,NA,21400,NA,latest,SUNY Brockport
94,596500,2025,Brown,865,Ivy League,1,16779,80,80,217156,Brown University,RI,41.82617,-71.40385,NA,Yes,Yes,No,No,117,8527,Undergraduate,Full-time,$110 ,36538,46032,46568,2568,1705,Total,Considered,770,800,0.055145164,117,Ivy Group,Brown University,2863,Brown University,RI,Providence,2912,7273,www.brown.edu/,68230,68230,12,0.0523,1546,5,NA,26572,NA,45823,latest,Brown
95,596501,2025,Bryant,845,America East,1,16779,81,81,217165,Bryant University,RI,41.920092,-71.539547,https://www.bryantbulldogs.com/information/Compliance/2013-14_Cohort_Graduation_Rates.pdf,Yes,Yes,No,No,125,2981,Undergraduate,Full-time,$110 ,23275,42403,6985,5142,671,Total,Considered,650,650,0.73614889,125,Northeast Conference,Bryant University,2864,Bryant University,RI,Smithfield,02917-1291,3236,https://www.bryant.edu/,51169,51169,21,0.6565,1263,5,NA,40846,NA,42552,latest,Bryant
96,596502,2025,Bucknell,838,Patriot,1,16779,83,83,211291,Bucknell University,PA,40.954317,-76.882616,https://www.bucknell.edu/azdirectory/institutional-research-planning/institutional-data/higher-education-opportunity-act,Yes,Yes,No,No,128,3859,Undergraduate,Full-time,$110 ,25745,51995,11263,3886,1027,Total,Considered,710,740,0.345023528,128,Patriot League,Bucknell University,2661,Bucknell University,PA,Lewisburg,17837,3818,www.bucknell.edu/,64772,64772,32,0.3201,1389,5,NA,40429,NA,55354,latest,Bucknell
97,597234,2025,Buena Vista,864,American Rivers,3,16779,84,84,153001,Buena Vista University,IA,42.642255,-95.208529,NA,Yes,Yes,No,No,176,1460,Undergraduate,Full-time,$110 ,28915,22491,1749,1154,237,Total,Considered,583,557,0.659805603,176,American Rivers Conference,Buena Vista University,1031,Buena Vista University,IA,Storm Lake,50588,1378,https://www.bvu.edu/,40190,40190,33,0.7176,1090,5,NA,18321,NA,22791,latest,Buena Vista
98,596503,2025,Butler,30184,Big East,1,16779,87,87,150163,Butler University,IN,39.8374,-86.172167,fs.ncaa.org/Docs/newmedia/public/rates/index.html,Yes,Yes,No,No,104,4566,Undergraduate,Full-time,$110 ,21166,41507,15340,12356,1132,Total,Considered,670,670,0.80547588,104,Big East Conference,Butler University,970,Butler University,IN,Indianapolis,46208,4383,www.butler.edu/,45980,45980,11,0.8587,1282,5,NA,38472,NA,42961,latest,Butler
120,597236,2025,Caltech,910,SCIAC,3,16779,89,89,110404,California Institute of Technology,CA,34.137349,-118.125878,NA,Yes,Yes,No,No,197,965,Undergraduate,Full-time,$110 ,31877,48070,13026,510,270,Total,Required,NA,NA,0.039152464,197,Southern California Intercollegiate Athletic Conference,California Institute of Technology,190,California Institute of Technology,CA,Pasadena,91125,1023,www.caltech.edu/,63255,63255,12,0.0314,NA,3,NA,18902,NA,56275,latest,Caltech
108,596504,2025,Cal Poly,904,Big West,1,16779,90,90,110422,California Polytechnic State University-San Luis Obispo,CA,35.299513,-120.657311,web1.ncaa.org/GSRSearch/exec/homePage,Yes,Yes,No,No,109,20269,Undergraduate,Full-time,$110 ,1561,28119,54570,18008,4884,Total,Neither required nor recommended,NA,NA,0.329998167,109,Big West Conference,California Polytechnic State University-San Luis Obispo,192,California Polytechnic State University-San Luis Obispo,CA,San Luis Obispo,93407,21521,calpoly.edu/,11075,30995,23,0.2975,NA,3,15624,NA,26920,NA,latest,Cal Poly
109,596865,2025,Cal Poly Pomona,828,CCAA,2,16779,91,91,110529,California State Polytechnic University-Pomona,CA,34.057912,-117.821476,broncoathletics.com/sports/2013/7/9/GEN_0709132857,Yes,Yes,No,No,138,23612,Undergraduate,Full-time,$110 ,1482,20173,41226,24993,3463,Total,Neither required nor recommended,NA,NA,0.606243633,138,California Collegiate Athletic Association,California State Polytechnic University-Pomona,197,California State Polytechnic University-Pomona,CA,Pomona,91768,24271,www.cpp.edu/,7439,19319,21,0.737,NA,3,11580,NA,20829,NA,latest,Cal Poly Pomona
110,596866,2025,Cal St. Dom. Hills,828,CCAA,2,16779,92,92,110547,California State University-Dominguez Hills,CA,33.864766,-118.255917,NA,Yes,Yes,No,No,138,12386,Undergraduate,Full-time,$110 ,9352,5606,16741,14999,2048,Total,Neither required nor recommended,NA,NA,0.895944089,138,California Collegiate Athletic Association,California State University-Dominguez Hills,199,California State University-Dominguez Hills,CA,Carson,90747-0005,12642,https://www.csudh.edu/,7064,18944,13,0.9132,NA,3,3659,NA,12878,NA,latest,Cal St. Dom. Hills
103,596867,2025,CSUSB,828,CCAA,2,16779,93,93,110510,California State University-San Bernardino,CA,34.182622,-117.323801,NA,Yes,Yes,No,No,138,14929,Undergraduate,Full-time,$110 ,2263,16487,13057,11878,2001,Total,Neither required nor recommended,NA,NA,0.909703607,138,California Collegiate Athletic Association,California State University-San Bernardino,196,California State University-San Bernardino,CA,San Bernardino,92407-2393,15771,www.csusb.edu/,7675,19555,12,0.9825,NA,3,5918,NA,15250,NA,latest,CSUSB
100,596505,2025,CSU Bakersfield,904,Big West,1,16779,94,94,110486,California State University-Bakersfield,CA,35.350005,-119.104711,www.csub.edu/irpa/_files/Student and Campus Data/CSUB graduation rates reported to NCAA GSR 2006-07 Cohort.pdf,Yes,Yes,No,No,109,7882,Undergraduate,Full-time,$110 ,1596,16814,12334,10510,1165,Total,Neither required nor recommended,NA,NA,0.852116102,109,Big West Conference,California State University-Bakersfield,194,California State University-Bakersfield,CA,Bakersfield,93311-1099,8183,www.csub.edu/,7696,19576,11,0.8819,NA,3,5825,NA,16810,NA,latest,CSU Bakersfield
150,596868,2025,Chico St.,828,CCAA,2,16779,95,95,110538,California State University-Chico,CA,39.729712,-121.844859,NA,Yes,Yes,No,No,138,13389,Undergraduate,Full-time,$110 ,1052,23714,19990,17086,1929,Total,Neither required nor recommended,NA,NA,0.854727364,138,California Collegiate Athletic Association,California State University-Chico,198,California State University-Chico,CA,Chico,95929-0150,13057,www.csuchico.edu/,8064,19944,12,0.9372,NA,3,14838,NA,23572,NA,latest,Chico St.
271,596707,2025,Fresno St.,5486,Mountain West,1,16779,96,96,110556,California State University-Fresno,CA,36.811154,-119.744569,www.fresnostate.edu/oie,Yes,Yes,No,No,203,19544,Undergraduate,Full-time,$110 ,1519,15989,15231,14816,3451,Total,Neither required nor recommended,NA,NA,0.972752938,203,Mountain West Conference,California State University-Fresno,200,California State University-Fresno,CA,Fresno,93740,21070,www.fresnostate.edu/,6980,18860,11,0.9638,NA,3,6480,NA,16580,NA,latest,Fresno St.
112,596506,2025,Cal St. Fullerton,904,Big West,1,16779,97,97,110565,California State University-Fullerton,CA,33.881506,-117.885446,www.ncaa.org/about/resources/research/graduation-rates,Yes,Yes,No,No,109,31048,Undergraduate,Full-time,$110 ,1470,15867,45140,26827,4219,Total,Neither required nor recommended,NA,NA,0.594306602,109,Big West Conference,California State University-Fullerton,201,California State University-Fullerton,CA,Fullerton,92832-3599,36956,www.fullerton.edu/,7073,18953,21,0.8674,NA,3,5646,NA,14831,NA,latest,Cal St. Fullerton
111,596869,2025,Cal St. East Bay,828,CCAA,2,16779,98,98,110574,California State University-East Bay,CA,37.657694,-122.054135,NA,Yes,Yes,No,No,138,10825,Undergraduate,Full-time,$110 ,1261,19432,14448,11899,941,Total,Neither required nor recommended,NA,NA,0.823574197,138,California Collegiate Athletic Association,California State University-East Bay,202,California State University-East Bay,CA,Hayward,94542,10422,https://www.csueastbay.edu/,7055,18935,21,0.9681,NA,3,11276,NA,20930,NA,latest,Cal St. East Bay
410,596507,2025,Long Beach St.,904,Big West,1,16779,99,99,110583,California State University-Long Beach,CA,33.782818,-118.11204,www.csulb.edu/divisions/aa/catalog/current/general_policies/graduation_rates.html,Yes,Yes,No,No,109,29890,Undergraduate,Full-time,$110 ,1306,17677,67122,31448,4865,Total,Neither required nor recommended,NA,NA,0.468520008,109,Big West Conference,California State University-Long Beach,203,California State University-Long Beach,CA,Long Beach,90840-0115,34131,www.csulb.edu/,7008,18888,11,0.4712,NA,3,8931,NA,18575,NA,latest,Long Beach St.
115,596870,2025,Cal State LA,828,CCAA,2,16779,100,100,110592,California State University-Los Angeles,CA,34.066927,-118.168965,https://www.calstatela.edu/InstitutionalEffectiveness/quick-facts,Yes,Yes,No,No,138,20922,Undergraduate,Full-time,$110 ,1797,15213,29223,26459,4095,Total,Neither required nor recommended,NA,NA,0.905416966,138,California Collegiate Athletic Association,California State University-Los Angeles,204,California State University-Los Angeles,CA,Los Angeles,90032-8506,21478,https://www.calstatela.edu/,6813,18698,11,0.9193,NA,3,4113,NA,14599,NA,latest,Cal State LA
102,596508,2025,CSUN,904,Big West,1,16779,101,101,110608,California State University-Northridge,CA,34.240126,-118.529319,https://www.csun.edu/admissions-records/your-right-to-know,Yes,Yes,No,No,109,28368,Undergraduate,Full-time,$110 ,1475,18110,23656,20842,4716,Total,Neither required nor recommended,NA,NA,0.881044978,109,Big West Conference,California State University-Northridge,205,California State University-Northridge,CA,Northridge,91330,32357,https://www.csun.edu/,7095,18975,11,0.9315,NA,3,7599,NA,18688,NA,latest,CSUN
669,596509,2025,Sacramento St.,923,WAC,1,16779,102,102,110617,California State University-Sacramento,CA,38.559415,-121.423549,NA,Yes,Yes,No,No,137,25465,Undergraduate,Full-time,$110 ,1530,19866,22706,21272,3581,Total,Neither required nor recommended,NA,NA,0.936844887,137,Western Athletic Conference,California State University-Sacramento,206,California State University-Sacramento,CA,Sacramento,95819-2694,27867,https://www.csus.edu/,7602,19482,11,0.9362,NA,3,10512,NA,20649,NA,latest,Sacramento St.
758,596871,2025,Stanislaus St.,828,CCAA,2,16779,103,103,110495,California State University-Stanislaus,CA,37.52577,-120.852511,https://www.warriorathletics.com/sports/2014/5/9/GEN_0509144319.aspx?tab=disclosure,Yes,Yes,No,No,138,8024,Undergraduate,Full-time,$110 ,2144,14824,5740,5439,951,Total,Neither required nor recommended,NA,NA,0.947560976,138,California Collegiate Athletic Association,California State University-Stanislaus,195,California State University-Stanislaus,CA,Turlock,95382-0299,8564,https://www.csustan.edu/,7826,19706,23,0.9747,NA,3,5671,NA,16815,NA,latest,Stanislaus St.
810,596510,2025,UC Santa Barbara,904,Big West,1,16779,104,104,110705,University of California-Santa Barbara,CA,34.416297,-119.846426,ncaa.org/about/resources/research/graduation-rates,Yes,Yes,No,No,109,22961,Undergraduate,Full-time,$110 ,4948,31659,105641,30824,4900,Total,Neither required nor recommended,NA,NA,0.291780653,109,Big West Conference,University of California-Santa Barbara,214,University of California-Santa Barbara,CA,Santa Barbara,93106,23205,www.ucsb.edu/,14965,45742,22,0.2778,NA,3,13825,NA,30085,NA,latest,UC Santa Barbara
107,597237,2025,Cal Lutheran,910,SCIAC,3,16779,105,105,110413,California Lutheran University,CA,34.224566,-118.878924,NA,Yes,Yes,No,No,197,2661,Undergraduate,Full-time,$110 ,23500,37492,4041,3311,492,Total,Considered,640,650,0.819351646,197,Southern California Intercollegiate Athletic Conference,California Lutheran University,191,California Lutheran University,CA,Thousand Oaks,91360-2787,2374,www.callutheran.edu/,50670,50670,12,0.8888,1224,5,NA,26433,NA,32409,latest,Cal Lutheran
118,596872,2025,California (PA),906,PSAC,2,16779,106,106,498571,Pennsylvania Western University,NA,NA,NA,NA,NA,NA,NA,NA,NA,NA,NA,NA,NA,NA,NA,NA,NA,NA,NA,NA,NA,NA,NA,NA,NA,California University of Pennsylvania,NA,NA,NA,NA,NA,NA,NA,NA,NA,NA,NA,NA,NA,NA,NA,NA,NA,NA,California (PA)
117,596511,2025,California,821,ACC,1,16779,107,107,110635,University of California-Berkeley,CA,37.871918,-122.260463,ncaa.org/about/resources/research/graduation-rates,Yes,Yes,No,No,127,32634,Undergraduate,Full-time,$110 ,4913,36217,112843,16295,6931,Total,Neither required nor recommended,NA,NA,0.144404172,127,Pacific-12 Conference,University of California-Berkeley,207,University of California-Berkeley,CA,Berkeley,94720,33073,www.berkeley.edu/,14850,45627,12,0.1166,NA,3,14979,NA,35154,NA,latest,California
806,596512,2025,UC Davis,904,Big West,1,16779,108,108,110644,University of California-Davis,CA,38.539667,-121.749567,ncaa.org/about/resources/research/graduation-rates,Yes,Yes,No,No,109,31506,Undergraduate,Full-time,$110 ,5400,31575,87120,42475,7482,Total,Neither required nor recommended,NA,NA,0.487545914,109,Big West Conference,University of California-Davis,208,University of California-Davis,CA,Davis,95616-8678,31777,ucdavis.edu/,15247,46024,23,0.4163,NA,3,15288,NA,31258,NA,latest,UC Davis
807,596513,2025,UC Irvine,904,Big West,1,16779,109,109,110653,University of California-Irvine,CA,33.648434,-117.841248,ncaa.org/about/resources/research/graduation-rates,Yes,Yes,No,No,109,29921,Undergraduate,Full-time,$110 ,5166,29565,107950,31110,6489,Total,Neither required nor recommended,NA,NA,0.288188976,109,Big West Conference,University of California-Irvine,209,University of California-Irvine,CA,Irvine,92697,29494,www.uci.edu/,14237,45014,11,0.2557,NA,3,12840,NA,29595,NA,latest,UC Irvine
813,596514,2025,UCLA,827,Big Ten,1,16779,110,110,110662,University of California-Los Angeles,CA,34.07178,-118.442179,www.ncaa.org/about/resources/research/graduation-rates,Yes,Yes,No,No,127,33313,Undergraduate,Full-time,$110 ,5388,30301,139489,15028,6584,Total,Neither required nor recommended,NA,NA,0.107736094,127,Pacific-12 Conference,University of California-Los Angeles,210,University of California-Los Angeles,CA,Los Angeles,90095-1405,33040,www.ucla.edu/,13747,44524,11,0.0873,NA,3,14013,NA,30481,NA,latest,UCLA
808,596515,2025,UC Riverside,904,Big West,1,16779,111,111,110671,University of California-Riverside,CA,33.97246,-117.32741,ncaa.org/about/resources/research/graduation-rates,Yes,Yes,No,No,109,22012,Undergraduate,Full-time,$110 ,4721,29379,52672,34437,5203,Total,Neither required nor recommended,NA,NA,0.653800881,109,Big West Conference,University of California-Riverside,211,University of California-Riverside,CA,Riverside,92521,22644,www.ucr.edu/,14170,44947,11,0.633,NA,3,13707,NA,29624,NA,latest,UC Riverside
809,596694,2025,UC San Diego,904,Big West,1,16779,112,112,110680,University of California-San Diego,CA,32.877749,-117.235866,ncaa.org/about/resources/research/graduation-rates,Yes,Yes,No,No,109,34529,Undergraduate,Full-time,$110 ,4974,30300,118386,40493,7544,Total,Neither required nor recommended,NA,NA,0.342042133,109,Big West Conference,University of California-San Diego,212,University of California-San Diego,CA,La Jolla,92093,33787,www.ucsd.edu/,15265,46042,11,0.2452,NA,3,11750,NA,28113,NA,latest,UC San Diego
121,597238,2025,Calvin,873,Michigan Intercol. Ath. Assn.,3,16779,114,114,169080,Calvin University,MI,42.929916,-85.587548,NA,Yes,Yes,No,No,180,3019,Undergraduate,Full-time,$110 ,24739,27355,3986,2992,736,Total,Considered,670,670,0.750627195,180,Michigan Intercollegiate Athletic Association,Calvin University,1473,Calvin University,MI,Grand Rapids,49546,2921,www.calvin.edu/,38670,38670,12,0.7131,1205,5,NA,24783,NA,28027,latest,Calvin
123,596516,2025,Campbell,837,CAA,1,16779,115,115,198136,Campbell University,NC,35.409149,-78.738238,https://www.campbell.edu/consumer-information/,Yes,Yes,No,No,106,3133,Undergraduate,Full-time,$110 ,25481,31342,4142,3614,562,Total,Considered,630,600,0.87252535,106,Big South Conference,Campbell University,2237,Campbell University,NC,Buies Creek,27506,2790,https://www.campbell.edu/,40410,40410,31,0.9429,NA,3,NA,23991,NA,31975,latest,Campbell
124,596517,2025,Canisius,871,MAAC,1,16779,116,116,189705,Canisius College,NY,42.925206,-78.852577,https://gogriffs.com/documents/2018/9/17/NCAA_Graduation_Rates.pdf,Yes,Yes,No,No,118,1799,Undergraduate,Full-time,$110 ,17955,22763,3668,2988,456,Total,Considered,620,630,0.814612868,118,Metro Atlantic Athletic Conference,Canisius College,1989,Canisius University,NY,Buffalo,14208-1098,1768,https://www.canisius.edu/,32720,32720,11,0.8177,NA,3,NA,18322,NA,23259,latest,Canisius
125,597239,2025,Capital,901,OAC,3,16779,117,117,201548,Capital University,OH,39.954875,-82.937867,NA,Yes,Yes,No,No,191,2030,Undergraduate,Full-time,$110 ,26224,26836,3585,2659,424,Total,Considered,640,620,0.741701534,191,Ohio Athletic Conference,Capital University,2388,Capital University,OH,Columbus,43209-2394,1709,https://www.capital.edu/,41788,41788,21,0.7317,1118,5,NA,23585,NA,27218,latest,Capital
126,597240,2025,Carleton,882,MIAC,3,16779,118,118,173258,Carleton College,MN,44.462318,-93.154666,NA,Yes,Yes,No,No,183,1977,Undergraduate,Full-time,$110 ,37014,41301,7915,1389,555,Total,Considered,760,790,0.175489577,183,Minnesota Intercollegiate Athletic Conference,Carleton College,1570,Carleton College,MN,Northfield,55057,2019,https://www.carleton.edu/,65457,65457,32,0.2228,1491,5,NA,27320,NA,41028,latest,Carleton
127,597241,2025,Carroll (WI),836,CCIW,3,16779,120,120,238458,Carroll University,WI,43.004527,-88.228114,www.carrollu.edu/consumerinformation/,Yes,Yes,No,No,167,2742,Undergraduate,Full-time,$110 ,20974,27490,4481,3159,678,Total,Considered,640,650,0.704976568,167,College Conference of Illinois and Wisconsin,Carroll University,3451,Carroll University,WI,Waukesha,53186,2525,www.carrollu.edu/,37230,37230,13,0.5841,1209,5,NA,24362,NA,27395,latest,Carroll (WI)
129,597242,2025,Carthage,836,CCIW,3,16779,121,121,238476,Carthage College,WI,42.622969,-87.820924,www.carthage.edu/registrar/student-right-to-know/,Yes,Yes,No,No,167,2854,Undergraduate,Full-time,$110 ,13802,32942,8639,6539,763,Total,Considered,600,600,0.75691631,167,College Conference of Illinois and Wisconsin,Carthage College,3452,Carthage College,WI,Kenosha,53140-1994,2628,www.carthage.edu/,36500,36500,13,0.8415,1113,5,NA,24813,NA,27527,latest,Carthage
105,597243,2025,CWRU,1471,UAA,3,16779,122,122,201645,Case Western Reserve University,OH,41.507419,-81.609596,NA,Yes,Yes,No,No,200,5994,Undergraduate,Full-time,$110 ,25882,47824,33232,10049,1606,Total,Considered,740,790,0.302389263,200,University Athletic Association,Case Western Reserve University,2389,Case Western Reserve University,OH,Cleveland,44106,6108,www.case.edu/,64671,64671,11,0.2868,1501,5,NA,38909,NA,49117,latest,CWRU
851,597244,2025,VTSU Castleton,867,Little East,3,16779,123,123,230834,NA,NA,NA,NA,NA,NA,NA,NA,NA,NA,NA,NA,NA,NA,NA,NA,NA,NA,NA,NA,NA,NA,NA,NA,NA,NA,Castleton University,NA,NA,NA,NA,NA,NA,NA,NA,NA,NA,NA,NA,NA,NA,NA,NA,NA,NA,VTSU Castleton
131,597245,2025,Catholic,30101,Landmark,3,16779,124,124,131283,The Catholic University of America,DC,38.933651,-76.997909,NA,Yes,Yes,No,No,361,3021,Undergraduate,Full-time,$110 ,32438,38121,5895,5070,691,Total,Neither required nor recommended,NA,NA,0.860050891,361,Landmark Conference,The Catholic University of America,573,The Catholic University of America,DC,Washington,20064,3063,https://www.catholic.edu/,55834,55834,11,0.8384,NA,3,NA,32798,NA,39898,latest,Catholic
133,597246,2025,Centenary (LA),835,SCAC,3,16779,125,125,158477,Centenary College of Louisiana,LA,32.483335,-93.730834,NA,Yes,Yes,No,No,198,545,Undergraduate,Full-time,$110 ,27487,29712,876,553,134,Total,Considered,640,610,0.631278539,198,Southern Collegiate Athletic Conference,Centenary College of Louisiana,1221,Centenary College of Louisiana,LA,Shreveport,71104,615,www.centenary.edu/,40000,40000,12,0.5442,1171,5,NA,25159,NA,28530,latest,Centenary (LA)
135,597247,2025,Central (IA),864,American Rivers,3,16779,126,126,153108,Central College,IA,41.401539,-92.922199,https://www.central.edu/academics/registrars-office/student-right-to-know/,Yes,Yes,No,No,176,1082,Undergraduate,Full-time,$110 ,8417,25885,2202,1641,340,Total,Considered,630,630,0.745231608,176,American Rivers Conference,Central College,1034,Central College,IA,Pella,50219,1062,www.central.edu/,20988,20988,32,0.7897,1115,5,NA,22353,NA,25764,latest,Central (IA)
137,596518,2025,Central Conn. St.,846,NEC,1,16779,127,127,128771,Central Connecticut State University,CT,41.692502,-72.765991,www.ccsu.edu/oira/consumerInformation.html,Yes,Yes,No,No,125,6624,Undergraduate,Full-time,$110 ,2670,20234,6285,4703,1093,Total,Considered,600,580,0.748289578,125,Northeast Conference,Central Connecticut State University,531,Central Connecticut State University,CT,New Britain,6050,7670,www.ccsu.edu/,12460,25736,21,0.7553,1091,5,16435,NA,21300,NA,latest,Central Conn. St.
812,596519,2025,UCF,25354,Big 12,1,16779,128,128,132903,University of Central Florida,FL,28.602159,-81.200889,ikm.ucf.edu/reports/ipeds/,Yes,Yes,No,No,372,53707,Undergraduate,Full-time,$110 ,6325,16337,48929,17797,7090,Total,Required,680,670,0.363731121,372,American Athletic Conference,University of Central Florida,595,University of Central Florida,FL,Orlando,32816,59095,www.ucf.edu/,6368,22467,21,0.3952,1277,1,10650,NA,17821,NA,latest,UCF
138,596520,2025,Central Mich.,875,MAC,1,16779,129,129,169248,Central Michigan University,MI,43.591203,-84.77525,https://cmuchippewas.com/sports/2020/6/8/prospective-chippewas.aspx,Yes,Yes,No,No,119,10602,Undergraduate,Full-time,$110 ,8156,17921,18517,14273,1910,Total,Considered,620,600,0.770805206,119,Mid-American Conference,Central Michigan University,1477,Central Michigan University,MI,Mount Pleasant,48859,9916,https://www.cmich.edu/,14190,14190,32,0.9101,1099,5,16041,NA,18780,NA,latest,Central Mich.
139,596873,2025,Central Mo.,883,Mid-America Intercollegiate,2,16779,130,130,176965,University of Central Missouri,MO,38.759111,-93.737428,https://www.ucmo.edu/consumer-information/index.php,Yes,Yes,No,No,148,6348,Undergraduate,Full-time,$110 ,3519,17660,5103,3867,1158,Total,Recommended,NA,NA,0.757789536,148,Mid-America Intercollegiate Athletic Association,University of Central Missouri,1678,University of Central Missouri,MO,Warrensburg,64093,5653,https://www.ucmo.edu/,9739,18064,32,0.6861,1090,5,15336,NA,18752,NA,latest,Central Mo.
142,597248,2025,Centre,30169,SAA,3,16779,132,132,156408,Centre College,KY,37.645709,-84.779392,NA,Yes,Yes,No,No,368,1259,Undergraduate,Full-time,$110 ,32028,28672,2567,1745,377,Total,Considered,695,770,0.679781847,368,Southern Athletic Association,Centre College,1168,Centre College,KY,Danville,40422-1394,1346,https://www.centre.edu/,50550,50550,32,0.5434,1345,5,NA,21497,NA,28164,latest,Centre
143,596976,2025,Chaminade,19591,PacWest,2,16779,133,133,141486,Chaminace University,NA,NA,NA,NA,NA,NA,NA,NA,NA,NA,NA,NA,NA,NA,NA,NA,NA,NA,NA,NA,NA,NA,NA,NA,NA,Chaminade University of Honolulu,NA,NA,NA,NA,NA,NA,NA,NA,NA,NA,NA,NA,NA,NA,NA,NA,NA,NA,Chaminade
144,597249,2025,Chapman,910,SCIAC,3,16779,134,134,111948,Chapman University,CA,33.79302,-117.852518,NA,Yes,Yes,No,No,197,7389,Undergraduate,Full-time,$110 ,25490,53059,15098,9115,1658,Total,Considered,700,710,0.603722347,197,Southern California Intercollegiate Athletic Conference,Chapman University,237,Chapman University,CA,Orange,92866,7629,https://www.chapman.edu/,62784,62784,12,0.5561,1353,5,NA,47527,NA,54519,latest,Chapman
814,597250,2025,UChicago,1471,UAA,3,16779,137,137,144050,University of Chicago,IL,41.787994,-87.599539,NA,Yes,Yes,No,No,182,5751,Undergraduate,Full-time,$110 ,36291,47835,37974,2460,2053,Total,Considered,780,800,0.064781166,182,Midwest Conference,University of Chicago,834,University of Chicago,IL,Chicago,60637,7540,www.uchicago.edu/,66939,66939,11,0.0479,1554,5,NA,18967,NA,54800,latest,UChicago
152,597251,2025,Chris. Newport,15810,C2C,3,16779,139,139,231712,Christopher Newport University,VA,37.062495,-76.494364,NA,Yes,Yes,No,No,164,4327,Undergraduate,Full-time,$110 ,2553,28609,6699,5931,1012,Total,Considered,670,650,0.885356023,164,Capital Athletic Conference,Christopher Newport University,3268,Christopher Newport University,VA,Newport News,23606-3072,4402,https://cnu.edu/,16351,30988,12,0.8796,1207,5,22197,NA,30024,NA,latest,Chris. Newport
154,596521,2025,Cincinnati,25354,Big 12,1,16779,140,140,201885,University of Cincinnati-Main Campus,OH,39.131159,-84.51428,www.uc.edu/righttoknow/grad_retention.html,Yes,Yes,No,No,372,25311,Undergraduate,Full-time,$110 ,1763,25710,25775,21865,5400,Total,Considered,670,680,0.848302619,372,American Athletic Conference,University of Cincinnati-Main Campus,2397,University of Cincinnati-Main Campus,OH,Cincinnati,45221-0063,29094,www.uc.edu/,13570,30582,11,0.8767,1281,5,23156,NA,26573,NA,latest,Cincinnati
786,596522,2025,The Citadel,912,SoCon,1,16779,141,141,217864,Citadel Military College of South Carolina,SC,32.797183,-79.958775,citadel.edu/root/images/financial_aid/1920forms/2020_cons_info_website.pdf,Yes,Yes,No,No,131,3069,Undergraduate,Full-time,$110 ,5280,25410,2470,2134,566,Total,Recommended,NA,NA,0.863967611,131,Southern Conference,Citadel Military College of South Carolina,2889,Citadel Military College of South Carolina,SC,Charleston,29409,2624,https://citadel.edu/,12570,37370,12,0.9809,1184,5,21002,NA,24725,NA,latest,The Citadel
156,597252,2025,Claremont-M-S,910,SCIAC,3,16779,142,142,112260,Claremont McKenna College,CA,34.102154,-117.711188,web3.ncaa.org/aprsearch/DIIIfgrsearch,Yes,Yes,No,No,197,1429,Undergraduate,Full-time,$110 ,25986,52737,5632,633,358,Total,Considered,750,780,0.112393466,197,Southern California Intercollegiate Athletic Conference,Claremont McKenna College,246,Claremont McKenna College,CA,Claremont,91711-6400,1379,www.cmc.edu/,64150,64150,21,0.1112,1514,5,NA,27384,NA,49293,latest,Claremont-M-S
157,596874,2025,Clarion,906,PSAC,2,16779,143,143,211644,NA,NA,NA,NA,NA,NA,NA,NA,NA,NA,NA,NA,NA,NA,NA,NA,NA,NA,NA,NA,NA,NA,NA,NA,NA,NA,Clarion University of Pennsylvania,NA,NA,NA,NA,NA,NA,NA,NA,NA,NA,NA,NA,NA,NA,NA,NA,NA,NA,Clarion
159,596875,2025,Clark Atlanta,913,SIAC,2,16779,144,144,138947,Clark Atlanta University,GA,33.747628,-84.412584,NA,Yes,Yes,No,No,161,3187,Undergraduate,Full-time,$110 ,86,39360,16718,9737,1123,Total,Considered,543,510,0.582426128,161,Southern Intercollegiate Athletic Conference,Clark Atlanta University,720,Clark Atlanta University,GA,Atlanta,30314-4391,3482,www.cau.edu/,26446,26446,11,0.6463,NA,5,NA,35115,NA,39940,latest,Clark Atlanta
158,597253,2025,Clark (MA),890,NEWMAC,3,16779,145,145,165334,Clark University,MA,42.249987,-71.823356,NA,Yes,Yes,No,No,186,2211,Undergraduate,Full-time,$110 ,22775,38941,8151,3915,505,Total,Considered,703,700,0.480309165,186,New England Women's & Men's Athletic Conference,Clark University,1378,Clark University,MA,Worcester,01610-1477,2336,www.clarku.edu/,55160,55160,12,0.4167,1339,5,NA,27711,NA,38832,latest,Clark (MA)
160,597254,2025,Clarkson,24197,Liberty League,3,16779,146,146,190044,Clarkson University,NY,44.662716,-74.999359,https://www.clarkson.edu/consumer-information-disclosures-heoa,Yes,Yes,No,No,201,2815,Undergraduate,Full-time,$110 ,37660,36207,7011,5229,740,Total,Considered,680,700,0.745827985,201,Upstate Collegiate Athletic Association,Clarkson University,1996,Clarkson University,NY,Potsdam,13699,2449,https://www.clarkson.edu/,57950,57950,33,0.7716,1307,5,NA,31955,NA,36429,latest,Clarkson
161,596523,2025,Clemson,821,ACC,1,16779,147,147,217882,Clemson University,SC,34.679381,-82.835114,https://www.clemson.edu/financial-aid/consumer.html,Yes,Yes,No,No,102,21989,Undergraduate,Full-time,$110 ,7006,26995,47007,23138,4593,Total,Considered,700,720,0.492224562,102,Atlantic Coast Conference,Clemson University,2891,Clemson University,SC,Clemson,29634,22778,www.clemson.edu/,15554,39498,22,0.3805,1341,5,22112,NA,27348,NA,latest,Clemson
163,596524,2025,Coastal Carolina,818,Sun Belt,1,16779,149,149,218724,Coastal Carolina University,SC,33.794995,-79.011767,www.coastal.edu/financialaid/generalinformation/heoa/athleticaidheoadisclosures/,Yes,Yes,No,No,134,9558,Undergraduate,Full-time,$110 ,7439,17894,15481,12251,2519,Total,Considered,600,590,0.791357147,134,Sun Belt Conference,Coastal Carolina University,2923,Coastal Carolina University,SC,Conway,29526,9909,https://www.coastal.edu/,11640,29628,13,0.8019,1128,5,13742,NA,18612,NA,latest,Coastal Carolina
164,597255,2025,Coe,864,American Rivers,3,16779,150,150,153144,Coe College,IA,41.988263,-91.658192,NA,Yes,Yes,No,No,176,1426,Undergraduate,Full-time,$110 ,36455,26199,6997,5084,397,Total,Recommended,NA,NA,0.726597113,176,American Rivers Conference,Coe College,1036,Coe College,IA,Cedar Rapids,52402-5092,1246,www.coe.edu/,52576,52576,12,0.7067,1206,5,NA,19155,NA,27413,latest,Coe
167,597256,2025,Colby,12817,NESCAC,3,16779,151,151,161086,Colby College,ME,44.564211,-69.66337,NA,Yes,Yes,No,No,185,2454,Undergraduate,Full-time,$110 ,39479,39186,15857,1407,667,Total,Considered,750,780,0.088730529,185,New England Small College Athletic Conference,Colby College,1278,Colby College,ME,Waterville,04901-8840,2282,www.colby.edu/,66600,66600,33,0.0683,1500,5,NA,23939,NA,52893,latest,Colby
168,597257,2025,Colby-Sawyer,23257,Great Northeast,3,16779,152,152,182634,Colby-Sawyer College,NH,43.411663,-71.975805,NA,Yes,Yes,No,No,215,840,Undergraduate,Full-time,$110 ,32282,32619,1847,1719,256,Total,Neither required nor recommended,NA,NA,0.93069843,215,North Atlantic Conference,Colby-Sawyer College,1822,Colby-Sawyer College,NH,New London,03257-7835,778,www.colby-sawyer.edu/,18400,18400,43,0.8998,NA,3,NA,25857,NA,30198,latest,Colby-Sawyer
170,596876,2025,Colo. Sch. of Mines,13128,RMAC,2,16779,155,155,126775,Colorado School of Mines,CO,39.751443,-105.223364,ir.mines.edu/student-right-to-know/,Yes,Yes,No,No,159,5571,Undergraduate,Full-time,$110 ,4469,32645,12022,6838,1449,Total,Considered,720,750,0.568790551,159,Rocky Mountain Athletic Conference,Colorado School of Mines,490,Colorado School of Mines,CO,Golden,80401,5801,www.mines.edu/,21186,44376,21,0.5971,1403,5,29240,NA,33931,NA,latest,Colo. Sch. of Mines
172,596525,2025,Columbia,865,Ivy League,1,16779,158,158,190150,Columbia University in the City of New York,NY,40.808286,-73.961885,NA,Yes,Yes,No,No,117,9547,Undergraduate,Full-time,$110 ,36744,45873,61110,2524,1641,Total,Considered,770,800,0.041302569,117,Ivy Group,Columbia University in the City of New York,2002,Columbia University in the City of New York,NY,New York,10027,8899,www.columbia.edu/,69045,69045,11,0.0423,1547,5,NA,20148,NA,44695,latest,Columbia
173,596877,2025,Columbus St.,12923,Peach Belt,2,16779,159,159,139366,Columbus State University,GA,32.50096,-84.94106,NA,Yes,Yes,No,No,157,5361,Undergraduate,Full-time,$110 ,4028,16810,5275,4142,1205,Total,Considered,570,560,0.78521327,157,Peach Belt Conference,Columbus State University,731,Columbus State University,GA,Columbus,31907-5645,5537,www.columbusstate.edu/,5751,16805,12,0.9924,994,5,11889,NA,15428,NA,latest,Columbus St.
176,597258,2025,Concordia Chicago,30097,NACC,3,16779,160,160,144351,Concordia University-Chicago,IL,41.898696,-87.809482,NA,Yes,Yes,No,No,359,1284,Undergraduate,Full-time,$110 ,21248,22774,5620,4935,336,Total,Neither required nor recommended,NA,NA,0.878113879,359,Northern Athletics Collegiate Conference,Concordia University-Chicago,843,Concordia University-Chicago,IL,River Forest,60305-1499,1337,www.cuchicago.edu/,36258,36258,21,0.9336,NA,3,NA,16774,NA,23731,latest,Concordia Chicago
178,597259,2025,Concordia-M'head,882,MIAC,3,16779,161,161,173300,Concordia College at Moorhead,MN,46.862482,-96.76749,NA,Yes,Yes,No,No,183,1898,Undergraduate,Full-time,$110 ,13179,27691,3778,2720,473,Total,Considered,630,588,0.71995765,183,Minnesota Intercollegiate Athletic Conference,Concordia College at Moorhead,1571,Concordia College at Moorhead,MN,Moorhead,56562,1721,https://www.concordiacollege.edu/,30020,30020,22,0.6306,1192,5,NA,25651,NA,29795,latest,Concordia-M'head
815,596526,2025,UConn,30184,Big East,1,16779,164,164,129020,University of Connecticut,CT,41.809098,-72.249948,heoa.uconn.edu/,Yes,Yes,No,No,104,18940,Undergraduate,Full-time,$110 ,3766,31470,36753,20433,3663,Total,Required,700,730,0.555954616,104,Big East Conference,University of Connecticut,536,University of Connecticut,CT,Storrs,6269,19147,uconn.edu/,20366,43034,31,0.5395,1338,1,22886,NA,31886,NA,latest,UConn
180,596527,2025,Coppin St.,846,NEC,1,16779,165,165,162283,Coppin State University,MD,39.311258,-76.658687,NA,Yes,Yes,No,No,121,1557,Undergraduate,Full-time,$110 ,NA,NA,2450,1174,177,Total,Required,530,530,0.479183673,121,Mid-Eastern Athletic Conference,Coppin State University,1311,Coppin State University,MD,Baltimore,21216-3698,1756,www.coppin.edu/,7001,13789,11,0.4956,NA,5,6007,NA,15238,NA,latest,Coppin St.
182,597260,2025,Cornell College,23119,MWC,3,16779,166,166,153162,Cornell College,IA,41.924554,-91.423741,NA,Yes,Yes,No,No,182,1055,Undergraduate,Full-time,$110 ,32259,30312,2836,2300,366,Total,Considered,710,695,0.81100141,182,Midwest Conference,Cornell College,1037,Cornell College,IA,Mount Vernon,52314-1098,1074,www.cornellcollege.edu/,50634,50634,31,0.8066,1246,5,NA,25079,NA,30897,latest,Cornell College
181,596528,2025,Cornell,865,Ivy League,1,16779,167,167,190415,Cornell University,NY,42.4472,-76.483084,NA,Yes,Yes,No,No,117,15575,Undergraduate,Full-time,$110 ,31495,48783,67380,5852,3718,Total,Considered,760,800,0.086850698,117,Ivy Group,Cornell University,2007,Cornell University,NY,Ithaca,14853,15935,www.cornell.edu/,66014,66014,13,0.0816,1520,5,NA,32337,NA,51735,latest,Cornell
183,597261,2025,Cortland,917,SUNYAC,3,16779,168,168,196149,SUNY Cortland,NY,42.598022,-76.188655,NA,Yes,Yes,No,No,199,6014,Undergraduate,Full-time,$110 ,2590,23382,11420,6909,1221,Total,Considered,620,620,0.604991243,199,State University of New York Athletic Conference,SUNY Cortland,2174,State University of New York at Cortland,NY,Cortland,13045-0900,5896,www2.cortland.edu/,8815,18725,32,0.5071,NA,3,19951,NA,23422,NA,latest,Cortland
185,596529,2025,Creighton,30184,Big East,1,16779,169,169,181002,Creighton University,NE,41.265361,-95.947811,gocreighton.com/sports/2015/10/25/CUA_1025153538.aspx,Yes,Yes,No,No,104,4862,Undergraduate,Full-time,$110 ,23205,36458,8147,6334,1138,Total,Considered,680,690,0.777464097,104,Big East Conference,Creighton University,1789,Creighton University,NE,Omaha,68178,4231,https://www.creighton.edu/,47000,47000,11,0.7231,1296,5,NA,32380,NA,35861,latest,Creighton
187,597262,2025,Curry,839,CNE,3,16779,170,170,165529,Curry College,MA,42.238061,-71.116539,NA,Yes,Yes,No,No,168,1965,Undergraduate,Full-time,$110 ,27208,33362,5192,4170,516,Total,Considered,586,579,0.803158706,168,Commonwealth Coast Conference,Curry College,1380,Curry College,MA,Milton,02186-2395,1757,https://www.curry.edu/,46220,46220,21,0.9205,1130,5,NA,29504,NA,32878,latest,Curry
191,596530,2025,Dartmouth,865,Ivy League,1,16779,172,172,182670,Dartmouth College,NH,43.704115,-72.289949,www.dartmouthsports.com/,Yes,Yes,No,No,117,4883,Undergraduate,Full-time,$110 ,25731,55770,28356,1750,1221,Total,Considered,770,800,0.061715334,117,Ivy Group,Dartmouth College,1823,Dartmouth College,NH,Hanover,03755-3529,4367,www.dartmouth.edu/,65739,65739,33,0.0623,1533,5,NA,28619,NA,51575,latest,Dartmouth
193,596531,2025,Davidson,820,Atlantic 10,1,16779,173,173,198385,Davidson College,NC,35.499767,-80.843979,https://davidsonwildcats.com/sports/2007/8/23/compliance.aspx,Yes,Yes,No,No,103,2089,Undergraduate,Full-time,$110 ,31705,41495,6434,1145,547,Total,Considered,NA,NA,0.177960833,103,Atlantic 10 Conference,Davidson College,2249,Davidson College,NC,Davidson,28035,1901,https://davidson.edu/,60300,60300,21,0.1448,1448,5,NA,18127,NA,40503,latest,Davidson
194,596879,2025,Davis & Elkins,30183,MEC,2,16779,174,174,237358,Davis & Elkins College,WV,38.931232,-79.846022,www.dewv.edu/consumer-information/general-institutional-information/,Yes,Yes,No,No,370,650,Undergraduate,Full-time,$110 ,20125,23153,813,631,170,Total,Recommended,NA,NA,0.776137761,370,Mountain East Conference,Davis & Elkins College,3415,Davis & Elkins College,WV,Elkins,26241-3996,681,www.dewv.edu/,31270,31270,33,0.5823,985,5,NA,19428,NA,21729,latest,Davis & Elkins
195,596532,2025,Dayton,820,Atlantic 10,1,16779,175,175,202480,University of Dayton,OH,39.739547,-84.176113,web3.ncaa.org/aprsearch/gsrsearch,Yes,Yes,No,No,103,8403,Undergraduate,Full-time,$110 ,28795,33715,17262,13919,2126,Total,Considered,660,670,0.80633762,103,Atlantic 10 Conference,University of Dayton,2412,University of Dayton,OH,Dayton,45469,8099,https://udayton.edu/,47600,47600,12,0.6165,1313,5,NA,31236,NA,34678,latest,Dayton
196,597263,2025,DePauw,897,NCAC,3,16779,177,177,150400,DePauw University,IN,39.640904,-86.860363,www.depauw.edu/admission/financial-aid/policies/consumer-information/,Yes,Yes,No,No,189,1767,Undergraduate,Full-time,$110 ,38407,31987,5695,3683,500,Total,Considered,680,740,0.646707638,189,North Coast Athletic Conference,DePauw University,976,DePauw University,IN,Greencastle,46135-1772,1804,www.depauw.edu/,57070,57070,32,0.5406,1287,5,NA,24546,NA,33816,latest,DePauw
200,596533,2025,Delaware St.,846,NEC,1,16779,178,178,130934,Delaware State University,DE,39.187173,-75.54053,www.desu.edu/institutional-research-and-analysis/heoa-compliance-information,Yes,Yes,No,No,121,4254,Undergraduate,Full-time,$110 ,9896,14352,4764,2803,1023,Total,Recommended,NA,NA,0.588371117,121,Mid-Eastern Athletic Conference,Delaware State University,567,Delaware State University,DE,Dover,19901,4630,www.desu.edu/,10314,20250,13,0.6167,984,5,15745,NA,20170,NA,latest,Delaware St.
201,597264,2025,Delaware Valley,28745,MAC Freedom,3,16779,179,179,211981,Delaware Valley University,PA,40.298659,-75.158452,www.delval.edu/about-delval/consumer-information,Yes,Yes,No,No,181,1675,Undergraduate,Full-time,$110 ,24853,32892,1854,1721,378,Total,Considered,640,610,0.928263215,181,Middle Atlantic States Athletic Corporation,Delaware Valley University,2678,Delaware Valley University,PA,Doylestown,18901-2697,1644,www.delval.edu/,43300,43300,21,0.9249,1180,5,NA,27243,NA,31988,latest,Delaware Valley
199,596534,2025,Delaware,837,CAA,1,16779,180,180,130943,University of Delaware,DE,39.679577,-75.752822,ire.udel.edu/ir/righttoknow/athletic-information/,Yes,Yes,No,No,110,19061,Undergraduate,Full-time,$110 ,3595,25149,34111,24679,4617,Total,Required,670,670,0.723490956,110,Colonial Athletic Association,University of Delaware,568,University of Delaware,DE,Newark,19716,18812,www.udel.edu/,16080,39720,21,0.6511,1297,5,16931,NA,25310,NA,latest,Delaware
202,596880,2025,Delta St.,858,Gulf South,2,16779,181,181,175616,Delta State University,MS,33.744745,-90.735365,www.deltastate.edu/PDFFiles/irp/heoa/2013-14-Student-Athlete-Graduation-Rates.pdf,Yes,Yes,No,No,146,1651,Undergraduate,Full-time,$110 ,4173,17333,901,899,264,Total,Required,600,590,0.997780244,146,Gulf South Conference,Delta State University,1638,Delta State University,MS,Cleveland,38733,1613,https://www.deltastate.edu/,8605,8605,33,0.9968,1091,1,13778,NA,17117,NA,latest,Delta St.
203,597265,2025,Denison,897,NCAC,3,16779,182,182,202523,Denison University,OH,40.071505,-82.523272,https://www.denison.edu/consumer-information,Yes,Yes,No,No,189,2384,Undergraduate,Full-time,$110 ,32483,41242,9513,2689,654,Total,Considered,690,740,0.282665826,189,North Coast Athletic Conference,Denison University,2414,Denison University,OH,Granville,43023,2398,https://www.denison.edu/,64000,64000,23,0.1693,1395,5,NA,38111,NA,46510,latest,Denison
204,597266,2025,Dickinson,9683,Centennial,3,16779,185,185,212009,Dickinson College,PA,40.202796,-77.197854,NA,Yes,Yes,No,No,165,2277,Undergraduate,Full-time,$110 ,35761,41427,6366,3061,677,Total,Recommended,NA,NA,0.48083569,165,Centennial Conference,Dickinson College,2679,Dickinson College,PA,Carlisle,17013-2896,2157,https://www.dickinson.edu/,63475,63475,13,0.4308,NA,5,NA,32191,NA,43766,latest,Dickinson
207,597267,2025,Drew,30101,Landmark,3,16779,190,190,184348,Drew University,NJ,40.761829,-74.424584,https://www.drew.edu/about/accreditation-consumer-information/,Yes,Yes,No,No,361,1684,Undergraduate,Full-time,$110 ,27092,32920,3542,2823,359,Total,Recommended,NA,NA,0.79700734,361,Landmark Conference,Drew University,1868,Drew University,NJ,Madison,7940,1510,www.drew.edu/,45360,45360,21,0.6944,1247,5,NA,25644,NA,34219,latest,Drew
209,597268,2025,Dubuque,864,American Rivers,3,16779,192,192,153278,University of Dubuque,IA,42.49726,-90.693428,NA,Yes,Yes,No,No,176,1468,Undergraduate,Full-time,$110 ,21226,26625,1905,1456,335,Total,Neither required nor recommended,NA,NA,0.764304462,176,American Rivers Conference,University of Dubuque,1042,University of Dubuque,IA,Dubuque,52001,1473,www.dbq.edu/,40065,40065,13,0.8692,1119,5,NA,23250,NA,26752,latest,Dubuque
210,596708,2025,Duke,821,ACC,1,16779,193,193,198419,Duke University,NC,36.001135,-78.937624,goduke.com/news/2020/8/10/duke-athletics-releases-2019-20-annual-report.aspx,Yes,Yes,No,No,102,6888,Undergraduate,Full-time,$110 ,31193,49945,49703,2927,1744,Total,Required,765,793,0.058889805,102,Atlantic Coast Conference,Duke University,2250,Duke University,NC,Durham,27708,6417,www.duke.edu/,65805,65805,11,0.0678,1539,5,NA,34454,NA,54375,latest,Duke
212,597269,2025,Earlham,9174,HCAC,3,16779,195,195,150455,Earlham College,IN,39.823431,-84.915037,NA,Yes,Yes,No,No,175,645,Undergraduate,Full-time,$110 ,32868,30131,1659,1146,171,Total,Considered,670,670,0.690777577,175,Heartland Collegiate Athletic Conference,Earlham College,978,Earlham College,IN,Richmond,47374-4095,612,https://earlham.edu/,51840,51840,32,0.7422,1250,5,NA,24516,NA,29101,latest,Earlham
213,596535,2025,East Carolina,823,The American,1,16779,196,196,198464,East Carolina University,NC,35.607186,-77.368291,https://public.tableau.com/profile/ecu.ipar#!/vizhome/NCAAAthleticsDashboard/Achievements,Yes,Yes,No,No,372,20188,Undergraduate,Full-time,$110 ,605,22499,21898,20560,4100,Total,Neither required nor recommended,NA,NA,0.93889853,372,American Athletic Conference,East Carolina University,2252,East Carolina University,NC,Greenville,27858-4353,19857,https://www.ecu.edu/,7361,23638,13,0.9006,1143,5,16514,NA,22787,NA,latest,East Carolina
215,596881,2025,East Stroudsburg,906,PSAC,2,16779,197,197,212115,East Stroudsburg University of Pennsylvania,PA,40.99599,-75.173905,https://www.esu.edu/about/consumer_information/index.cfm,Yes,Yes,No,No,158,4062,Undergraduate,Full-time,$110 ,469,23680,3054,2852,679,Total,Considered,580,570,0.933857236,158,Pennsylvania State Athletic Conference,East Stroudsburg University of Pennsylvania,2683,East Stroudsburg University of Pennsylvania,PA,East Stroudsburg,18301-2999,4611,https://www.esu.edu/,11036,19002,31,0.9288,1078,5,15089,NA,19841,NA,latest,East Stroudsburg
211,596536,2025,ETSU,912,SoCon,1,16779,198,198,220075,East Tennessee State University,TN,36.301643,-82.366954,https://www.etsubucs.com/athletics/prospectivesa/,Yes,Yes,No,No,131,9385,Undergraduate,Full-time,$110 ,5612,18666,8563,7484,1856,Total,Considered,NA,NA,0.87399276,131,Southern Conference,East Tennessee State University,2982,East Tennessee State University,TN,Johnson City,37614,9807,https://www.etsu.edu/,9950,13790,13,0.8706,1114,5,15794,NA,20907,NA,latest,ETSU
219,597270,2025,Eastern Conn. St.,867,Little East,3,16779,200,200,129215,Eastern Connecticut State University,CT,41.721673,-72.218753,https://www.easternct.edu/planning-and-institutional-research/index.html,Yes,Yes,No,No,178,3606,Undergraduate,Full-time,$110 ,7252,21396,4630,3389,784,Total,Recommended,NA,NA,0.731965443,178,Little East Conference,Eastern Connecticut State University,539,Eastern Connecticut State University,CT,Willimantic,6226,3377,https://www.easternct.edu/,13292,16624,31,0.8055,1200,5,20480,NA,23882,NA,latest,Eastern Conn. St.
220,596537,2025,Eastern Ill.,902,OVC,1,16779,201,201,144892,Eastern Illinois University,IL,39.479843,-88.175658,NA,Yes,Yes,No,No,126,4792,Undergraduate,Full-time,$110 ,5999,19335,7145,5126,778,Total,Considered,580,560,0.717424773,126,Ohio Valley Conference,Eastern Illinois University,850,Eastern Illinois University,IL,Charleston,61920,4398,https://www.eiu.edu/,13403,15879,33,0.6775,1010,5,14093,NA,21672,NA,latest,Eastern Ill.
221,596538,2025,Eastern Ky.,920,ASUN,1,16779,202,202,156620,Eastern Kentucky University,KY,37.740845,-84.300796,NA,Yes,Yes,No,No,135,9785,Undergraduate,Full-time,$110 ,6914,14314,7251,7131,2493,Total,Required,590,590,0.983450559,135,Atlantic Sun Conference,Eastern Kentucky University,1173,Eastern Kentucky University,KY,Richmond,40475-3102,11674,www.eku.edu/,10130,20820,32,0.7809,1089,5,9962,NA,15362,NA,latest,Eastern Ky.
217,597271,2025,East. Mennonite,903,ODAC,3,16779,203,203,232043,Eastern Mennonite University,VA,38.471134,-78.880326,NA,Yes,Yes,No,No,192,874,Undergraduate,Full-time,$110 ,25138,28696,1090,1038,208,Total,Considered,790,800,0.952293578,192,Old Dominion Athletic Conference,Eastern Mennonite University,3275,Eastern Mennonite University,VA,Harrisonburg,22802-2462,800,https://emu.edu/,41860,41860,13,0.9975,NA,3,NA,23615,NA,31526,latest,East. Mennonite
222,596539,2025,Eastern Mich.,875,MAC,1,16779,204,204,169798,Eastern Michigan University,MI,42.251675,-83.627443,https://emueagles.com/index.aspx,Yes,Yes,No,No,119,9729,Undergraduate,Full-time,$110 ,5826,20259,17506,14811,2312,Total,Considered,600,580,0.846052782,119,Mid-American Conference,Eastern Michigan University,1491,Eastern Michigan University,MI,Ypsilanti,48197,10751,www.emich.edu/,15510,15510,21,0.8135,1046,5,17084,NA,22274,NA,latest,Eastern Mich.
498,596882,2025,Mont. St. Billings,30012,Great Northwest,2,16779,205,205,180179,NA,NA,NA,NA,NA,NA,NA,NA,NA,NA,NA,NA,NA,NA,NA,NA,NA,NA,NA,NA,NA,NA,NA,NA,NA,NA,Montana State University Billings,NA,NA,NA,NA,NA,NA,NA,NA,NA,NA,NA,NA,NA,NA,NA,NA,NA,NA,Mont. St. Billings
223,596883,2025,Eastern N.M.,868,Lone Star,2,16779,206,206,187648,Eastern New Mexico University-Main Campus,NM,34.175592,-103.34819,goeasternathletics.com/sports/2010/6/25/GEN_0625101746.aspx,Yes,Yes,No,No,147,2739,Undergraduate,Full-time,$110 ,3989,13940,1480,481,349,Total,Required,570,530,0.325,147,Lone Star Conference,Eastern New Mexico University-Main Campus,1931,Eastern New Mexico University-Main Campus,NM,Portales,88130,3186,www.enmu.edu/,6863,8843,33,0.5492,965,5,6199,NA,11849,NA,latest,Eastern N.M.
224,596884,2025,Eckerd,919,Sunshine State,2,16779,208,208,133492,Eckerd College,FL,27.715798,-82.687043,https://eckerdtritons.com/sports/2009/7/21/compliance.aspx,Yes,Yes,No,No,162,2163,Undergraduate,Full-time,$110 ,29142,36212,5580,3927,650,Total,Neither required nor recommended,NA,NA,0.703763441,162,Sunshine State Conference,Eckerd College,601,Eckerd College,FL,Saint Petersburg,33711-4700,1984,https://www.eckerd.edu/,50374,50374,11,0.7869,1256,5,NA,33011,NA,37419,latest,Eckerd
227,597272,2025,Elizabethtown,30101,Landmark,3,16779,211,211,212197,Elizabethtown College,PA,40.149236,-76.593224,NA,Yes,Yes,No,No,361,1669,Undergraduate,Full-time,$110 ,18373,29725,2510,1995,434,Total,Considered,650,630,0.794820717,361,Landmark Conference,Elizabethtown College,2685,Elizabethtown College,PA,Elizabethtown,17022-2298,1815,www.etown.edu/,36842,36842,21,0.7677,1190,5,NA,26198,NA,29855,latest,Elizabethtown
228,597273,2025,Elmhurst,836,CCIW,3,16779,212,212,144962,Elmhurst University,IL,41.897164,-87.945369,NA,Yes,Yes,No,No,167,2984,Undergraduate,Full-time,$110 ,22904,28551,3762,2682,531,Total,Considered,620,600,0.71291866,167,College Conference of Illinois and Wisconsin,Elmhurst University,852,Elmhurst University,IL,Elmhurst,60126-3296,2954,www.elmhurst.edu/,41628,41628,21,0.7574,1116,5,NA,21063,NA,28795,latest,Elmhurst
229,597274,2025,Elmira,863,Empire 8,3,16779,213,213,190983,Elmira College,NY,42.0961,-76.813459,NA,Yes,Yes,No,No,172,576,Undergraduate,Full-time,$110 ,21112,28026,1382,1296,158,Total,Considered,NA,NA,0.937771346,172,Empire Eight,Elmira College,2038,Elmira College,NY,Elmira,14901,583,https://www.elmira.edu/,37932,37932,13,0.908,1239,5,NA,23735,NA,28670,latest,Elmira
233,597275,2025,Emerson,890,NEWMAC,3,16779,214,214,165662,Emerson College,MA,42.352202,-71.065384,NA,Yes,Yes,No,No,186,4386,Undergraduate,Full-time,$110 ,20028,55749,11568,5238,1058,Total,Considered,710,690,0.45280083,186,New England Women's & Men's Athletic Conference,Emerson College,1385,Emerson College,MA,Boston,02116-4624,4145,www.emerson.edu/,55392,55392,11,0.4748,1359,5,NA,46766,NA,55833,latest,Emerson
236,596878,2025,Emory & Henry,12850,SAC,2,16779,216,216,232025,Emory & Henry College,VA,36.772857,-81.829142,NA,Yes,Yes,No,No,160,1056,Undergraduate,Full-time,$110 ,28032,24527,2260,1971,390,Total,Neither required nor recommended,NA,NA,0.872123894,160,South Atlantic Conference,Emory & Henry College,3274,Emory & Henry University,VA,Emory,24327-0947,1107,www.ehc.edu/,35280,35280,41,0.963,1171,5,NA,20591,NA,23722,latest,Emory & Henry
235,597276,2025,Emory,1471,UAA,3,16779,217,217,139658,Emory University,GA,33.790183,-84.325512,NA,Yes,Yes,No,No,200,7852,Undergraduate,Full-time,$110 ,26623,48971,33435,4364,1494,Total,Considered,750,790,0.130521908,200,University Athletic Association,Emory University,739,Emory University,GA,Atlanta,30322,7275,www.emory.edu/,60774,60774,11,0.111,1507,5,NA,23911,NA,54582,latest,Emory
240,597277,2025,Eureka,12974,SLIAC,3,16779,218,218,144971,Eureka College,IL,40.71482,-89.269624,NA,Yes,Yes,No,No,195,455,Undergraduate,Full-time,$110 ,15535,23433,877,760,119,Total,Considered,575,580,0.86659065,195,St. Louis Intercollegiate Athletic Conference,Eureka College,853,Eureka College,IL,Eureka,61530,522,www.eureka.edu/,28400,28400,31,0.8847,NA,3,NA,22048,NA,NA,latest,Eureka
241,596709,2025,Evansville,884,MVC,1,16779,219,219,150534,University of Evansville,IN,37.971549,-87.531644,www.evansville.edu/student-financial-services/student-consumer-information.cfm,Yes,Yes,No,No,123,1571,Undergraduate,Full-time,$110 ,28111,24687,3661,2744,327,Total,Considered,630,620,0.749521989,123,Missouri Valley Conference,University of Evansville,979,University of Evansville,IN,Evansville,47722,1477,https://www.evansville.edu/,42676,42676,12,0.7765,NA,3,NA,20230,NA,26264,latest,Evansville
246,596540,2025,Fairfield,871,MAAC,1,16779,220,220,129242,Fairfield University,CT,41.157673,-73.255903,www.fairfield.edu/about-fairfield/university-profile/consumer-information/,Yes,Yes,No,No,118,4794,Undergraduate,Full-time,$110 ,22939,48276,12674,7073,1256,Total,Considered,690,690,0.558071643,118,Metro Atlantic Athletic Conference,Fairfield University,540,Fairfield University,CT,Fairfield,06824-5195,4938,fairfield.edu/,56360,56360,21,0.4498,1323,5,NA,46274,NA,49644,latest,Fairfield
243,597278,2025,FDU-Florham,28745,MAC Freedom,3,16779,221,221,184694,Fairleigh Dickinson University-Florham Campus,NJ,40.774498,-74.432121,view2.fdu.edu/about-fdu/facts-about-fdu/student-consumer-information/,Yes,Yes,No,No,208,2315,Undergraduate,Full-time,$110 ,21467,28928,4125,3488,488,Total,Neither required nor recommended,NA,NA,0.845575758,208,Freedom Conference,Fairleigh Dickinson University-Florham Campus,1874,Fairleigh Dickinson University-Florham Campus,NJ,Madison,7940,1958,https://www.fdu.edu/,35822,35822,21,0.9527,NA,5,NA,24415,NA,33996,latest,FDU-Florham
242,596541,2025,FDU,846,NEC,1,16779,222,222,184603,Fairleigh Dickinson University-Metropolitan Campus,NJ,40.897209,-74.028986,view2.fdu.edu/about-fdu/facts-about-fdu/student-consumer-information/,Yes,Yes,No,No,125,2776,Undergraduate,Full-time,$110 ,22951,22737,3982,3374,463,Total,Neither required nor recommended,NA,NA,0.847312908,125,Northeast Conference,Fairleigh Dickinson University-Metropolitan Campus,1872,Fairleigh Dickinson University-Metropolitan Campus,NJ,Teaneck,7666,2578,https://www.fdu.edu/,35822,35822,21,0.9591,NA,5,NA,15266,NA,27494,latest,FDU
250,597279,2025,Ferrum,903,ODAC,3,16779,225,225,232089,Ferrum College,VA,36.926912,-80.021639,www.ferrum.edu/academic-affairs/institutional-research-effectiveness/heoa-disclosures-student-consumer-information/,Yes,Yes,No,No,192,907,Undergraduate,Full-time,$110 ,4791,47477,1671,1277,220,Total,Considered,590,590,0.764213046,192,Old Dominion Athletic Conference,Ferrum College,3277,Ferrum College,VA,Ferrum,24088-9000,745,www.ferrum.edu/,38320,38320,42,1,990,5,NA,22085,NA,28515,latest,Ferrum
252,597280,2025,Fitchburg St.,870,MASCAC,3,16779,227,227,165820,Fitchburg State University,MA,42.588298,-71.789666,www.fitchburgstate.edu/uploads/files/Institutional_Research/Student_Right_to_Know_Graduation_Rate_Disclosure_Fitchburg_2014.pdf,Yes,Yes,No,No,179,2852,Undergraduate,Full-time,$110 ,1261,21603,3414,2911,567,Total,Considered,590,590,0.852665495,179,Massachusetts State College Athletic Association,Fitchburg State University,1390,Fitchburg State University,MA,Fitchburg,01420-2697,2825,www.fitchburgstate.edu/,11046,17126,22,0.8994,1114,5,15432,NA,22603,NA,latest,Fitchburg St.
257,596542,2025,Florida A&M,916,SWAC,1,16779,228,228,133650,Florida Agricultural and Mechanical University,FL,30.428504,-84.290226,www.famu.edu/index.cfm?oir&IPEDS,Yes,Yes,No,No,121,6997,Undergraduate,Full-time,$110 ,7622,16363,8717,3076,1129,Total,Required,590,560,0.352873695,121,Mid-Eastern Athletic Conference,Florida Agricultural and Mechanical University,605,Florida Agricultural and Mechanical University,FL,Tallahassee,32307,7516,www.famu.edu/,5785,17725,12,0.2112,1100,1,15847,NA,21999,NA,latest,Florida A&M
253,596543,2025,Fla. Atlantic,823,The American,1,16779,229,229,133669,Florida Atlantic University,FL,26.372421,-80.102978,NA,Yes,Yes,No,No,111,21757,Undergraduate,Full-time,$110 ,4640,15478,25148,19617,3925,Total,Required,610,590,0.780062033,111,Conference USA,Florida Atlantic University,606,Florida Atlantic University,FL,Boca Raton,33431-0991,23458,www.fau.edu/,4879,17324,13,0.7344,1119,1,8001,NA,16235,NA,latest,Fla. Atlantic
259,596885,2025,Florida Tech,919,Sunshine State,2,16779,230,230,133881,Florida Institute of Technology,FL,28.065815,-80.622893,https://www.fit.edu/institutional-research/institutional-research/core-values--student-success/full-time-ftic-retention-and-graduation-rates/,Yes,Yes,No,No,162,3278,Undergraduate,Full-time,$110 ,25377,32253,10650,7016,756,Total,Required,670,670,0.658779343,162,Sunshine State Conference,Florida Institute of Technology,614,Florida Institute of Technology,FL,Melbourne,32901-6975,3235,https://www.fit.edu/,44360,44360,13,0.6253,1213,1,NA,35300,NA,39204,latest,Florida Tech
245,596544,2025,FIU,24312,CUSA,1,16779,231,231,133951,Florida International University,FL,25.75732,-80.373928,web3.ncaa.org/aprsearch/gsrsearch,Yes,Yes,No,No,111,38978,Undergraduate,Full-time,$110 ,2511,17155,16406,10502,4061,Total,Required,630,610,0.640131659,111,Conference USA,Florida International University,615,Florida International University,FL,Miami,33199,38761,www.fiu.edu/,6565,18963,21,0.5884,1154,1,9133,NA,17313,NA,latest,FIU
254,596886,2025,Fla. Southern,919,Sunshine State,2,16779,233,233,134079,Florida Southern College,FL,28.032443,-81.948203,www.flsouthern.edu/campus-offices/institutional-research-office/institutional-information.aspx,Yes,Yes,No,No,162,2854,Undergraduate,Full-time,$110 ,22279,32776,10759,6550,792,Total,Considered,680,655,0.608792639,162,Sunshine State Conference,Florida Southern College,620,Florida Southern College,FL,Lakeland,33801-5698,2607,www.flsouthern.edu/,42360,42360,12,0.5907,1263,5,NA,29664,NA,34331,latest,Fla. Southern
258,596545,2025,Florida St.,821,ACC,1,16779,234,234,134097,Florida State University,FL,30.440756,-84.291921,NA,Yes,Yes,No,No,102,33238,Undergraduate,Full-time,$110 ,11916,11392,65235,24183,7619,Total,Required,680,660,0.370705909,102,Atlantic Coast Conference,Florida State University,621,Florida State University,FL,Tallahassee,32306-1037,31812,https://www.fsu.edu/,5656,18786,12,0.2538,1323,1,10997,NA,17910,NA,latest,Florida St.
256,596546,2025,Florida,911,SEC,1,16779,235,235,134130,University of Florida,FL,29.64629,-82.347911,https://floridagators.com/sports/2015/12/10/_compliance_p_sa_prospective.aspx,Yes,Yes,No,No,130,34229,Undergraduate,Full-time,$110 ,6156,15203,51207,15431,6787,Total,Required,720,750,0.301345519,130,Southeastern Conference,University of Florida,622,University of Florida,FL,Gainesville,32611,34102,https://www.ufl.edu/,6381,28659,12,0.2403,1397,1,6351,NA,15571,NA,latest,Florida
261,596547,2025,Fordham,820,Atlantic 10,1,16779,236,236,191241,Fordham University,NY,40.859354,-73.882705,NA,Yes,Yes,No,No,103,11123,Undergraduate,Full-time,$110 ,26814,47981,46275,26980,2879,Total,Considered,730,750,0.583036197,103,Atlantic 10 Conference,Fordham University,2043,Fordham University,NY,Bronx,10458,10239,https://www.fordham.edu/,61992,61992,11,0.5628,1412,5,NA,42581,NA,50121,latest,Fordham
263,597281,2025,Framingham St.,870,MASCAC,3,16779,238,238,165866,Framingham State University,MA,42.297116,-71.437565,NA,Yes,Yes,No,No,179,3058,Undergraduate,Full-time,$110 ,1653,24724,5117,4288,580,Total,Considered,605,570,0.83799101,179,Massachusetts State College Athletic Association,Framingham State University,1391,Framingham State University,MA,Framingham,01701-9101,2556,www.framingham.edu/,11630,17710,13,0.8487,1150,5,16698,NA,23914,NA,latest,Framingham St.
267,597282,2025,Franklin & Marshall,9683,Centennial,3,16779,239,239,212577,Franklin and Marshall College,PA,40.048045,-76.319037,NA,Yes,Yes,No,No,165,2240,Undergraduate,Full-time,$110 ,32014,48305,7720,2898,510,Total,Neither required nor recommended,NA,NA,0.375388601,165,Centennial Conference,Franklin and Marshall College,2697,Franklin and Marshall College,PA,Lancaster,17604-3003,1904,www.fandm.edu/,68380,68380,13,0.3183,1394,5,NA,39061,NA,48713,latest,Franklin & Marshall
268,596887,2025,Franklin Pierce,899,NE10,2,16779,241,241,182795,Franklin Pierce University,NH,42.78014,-72.058011,www.fpuravens.com/information/compliance/pdfs/NCAAgradrates-110615.pdf,Yes,Yes,No,No,153,1214,Undergraduate,Full-time,$110 ,26925,33565,3305,2926,271,Total,Neither required nor recommended,NA,NA,0.885325265,153,Northeast 10 Conference,Franklin Pierce University,1826,Franklin Pierce University,NH,Rindge,03461-0060,1055,https://www.franklinpierce.edu/,44963,44963,42,0.9019,1030,5,NA,26906,NA,28583,latest,Franklin Pierce
269,597283,2025,Fredonia,917,SUNYAC,3,16779,242,242,196158,SUNY at Fredonia,NY,42.452236,-79.337375,https://fredoniabluedevils.com/sports/2016/9/13/graduation-rates.aspx?id=208,Yes,Yes,No,No,199,3647,Undergraduate,Full-time,$110 ,4806,19844,4668,4236,806,Total,Considered,650,630,0.907455013,199,State University of New York Athletic Conference,SUNY at Fredonia,2175,SUNY at Fredonia,NY,Fredonia,14063-1136,2860,https://www.fredonia.edu/,8771,19191,32,0.792,1213,5,15644,NA,20350,NA,latest,Fredonia
272,596847,2025,Frostburg St.,30183,MEC,2,16779,243,243,162584,Frostburg State University,MD,39.650918,-78.934293,NA,Yes,Yes,No,No,370,3194,Undergraduate,Full-time,$110 ,3703,22095,4287,3689,587,Total,Required,610,590,0.860508514,370,Mountain East Conference,Frostburg State University,1315,Frostburg State University,MD,Frostburg,21532-1099,2849,www.frostburg.edu/,9998,25180,33,0.8944,NA,5,15323,NA,22754,NA,latest,Frostburg St.
275,596888,2025,Gannon,906,PSAC,2,16779,246,246,212601,Gannon University,PA,42.128403,-80.087166,www.gannon.edu/About-Gannon/Student-Consumer-Information/,Yes,Yes,No,No,158,2978,Undergraduate,Full-time,$110 ,25015,23061,4746,3967,644,Total,Considered,620,630,0.835861778,158,Pennsylvania State Athletic Conference,Gannon University,2698,Gannon University,PA,Erie,16541-0001,2467,www.gannon.edu/,37951,37951,13,0.767,NA,3,NA,23206,NA,25859,latest,Gannon
279,596548,2025,George Mason,820,Atlantic 10,1,16779,248,248,232186,George Mason University,VA,38.829976,-77.307428,https://oiep.gmu.edu/wp-content/uploads/2021/01/NCAA_Student_Athlete-Federal-Graduation-Rate-Report_2013_Cohort.pdf,Yes,Yes,No,No,103,24711,Undergraduate,Full-time,$110 ,2044,24224,20527,18741,3986,Total,Considered,670,680,0.912992644,103,Atlantic 10 Conference,George Mason University,3278,George Mason University,VA,Fairfax,22030-4444,27083,https://www2.gmu.edu/,13815,39397,21,0.8883,1247,5,18287,NA,25247,NA,latest,George Mason
280,596549,2025,George Washington,820,Atlantic 10,1,16779,249,249,131469,George Washington University,DC,38.89923,-77.048363,https://irp.gwu.edu/facts-and-dashboards,Yes,Yes,No,No,103,11117,Undergraduate,Full-time,$110 ,27713,50187,27236,13539,2571,Total,Considered,740,750,0.497099427,103,Atlantic 10 Conference,George Washington University,577,George Washington University,DC,Washington,20052,10848,https://www.gwu.edu/,64990,64990,11,0.4354,1433,5,NA,37454,NA,53974,latest,George Washington
281,596550,2025,Georgetown,30184,Big East,1,16779,251,251,131496,Georgetown University,DC,38.908809,-77.073463,NA,Yes,Yes,No,No,104,7217,Undergraduate,Full-time,$110 ,30396,51119,27629,3311,1585,Total,Required,770,780,0.119837852,104,Big East Conference,Georgetown University,578,Georgetown University,DC,Washington,20057-0001,7462,www.georgetown.edu/,65081,65081,11,0.1308,1494,1,NA,39433,NA,57166,latest,Georgetown
273,596551,2025,Ga. Southern,818,Sun Belt,1,16779,253,253,139931,Georgia Southern University,GA,32.426153,-81.784045,www.gseagles.com/sports/2013/7/14/GEN_0714132518.aspx?,Yes,Yes,No,No,134,21606,Undergraduate,Full-time,$110 ,4107,18545,18541,16782,5571,Total,Considered,610,590,0.905129173,134,Sun Belt Conference,Georgia Southern University,746,Georgia Southern University,GA,Statesboro,30460-8126,21029,www.georgiasouthern.edu/,5905,16959,32,0.8963,1057,5,16531,NA,20259,NA,latest,Ga. Southern
284,596552,2025,Georgia St.,818,Sun Belt,1,16779,254,254,139940,Georgia State University,GA,33.7527,-84.38667,NA,Yes,Yes,No,No,134,25515,Undergraduate,Full-time,$110 ,5742,21407,25254,18831,6058,Total,Considered,650,640,0.745664053,134,Sun Belt Conference,Georgia State University,747,Georgia State University,GA,Atlanta,30303-3083,27109,www.gsu.edu/,8478,23709,11,0.6228,1149,5,15931,NA,20338,NA,latest,Georgia St.
285,596553,2025,Georgia Tech,821,ACC,1,16779,255,255,139755,Georgia Institute of Technology-Main Campus,GA,33.77242,-84.394832,https://irp.gatech.edu/student-achievement,Yes,Yes,No,No,102,16360,Undergraduate,Full-time,$110 ,10341,18807,44048,7030,3453,Total,Required,730,770,0.15959862,102,Atlantic Coast Conference,Georgia Institute of Technology-Main Campus,743,Georgia Institute of Technology-Main Campus,GA,Atlanta,30332-0530,18260,www.gatech.edu/,11764,32876,11,0.1646,1447,1,13289,NA,17250,NA,latest,Georgia Tech
282,596554,2025,Georgia,911,SEC,1,16779,257,257,139959,University of Georgia,GA,33.956262,-83.374039,NA,Yes,Yes,No,No,130,28709,Undergraduate,Full-time,$110 ,9207,18614,39229,15685,5819,Total,Considered,720,730,0.399831757,130,Southeastern Conference,University of Georgia,748,University of Georgia,GA,Athens,30602,31310,www.uga.edu/,11180,30220,12,0.372,1301,1,13816,NA,17846,NA,latest,Georgia
287,597284,2025,Gettysburg,9683,Centennial,3,16779,258,258,212674,Gettysburg College,PA,39.836597,-77.236792,NA,Yes,Yes,No,No,165,2637,Undergraduate,Full-time,$110 ,35640,40690,6206,3496,623,Total,Considered,720,710,0.563325814,165,Centennial Conference,Gettysburg College,2700,Gettysburg College,PA,Gettysburg,17325,2209,https://www.gettysburg.edu/,64230,64230,31,0.4751,1350,5,NA,30086,NA,42579,latest,Gettysburg
655,597285,2025,Rowan,891,NJAC,3,16779,259,259,184782,Rowan University,NJ,39.709108,-75.119119,NA,Yes,Yes,No,No,187,14121,Undergraduate,Full-time,$110 ,4803,27448,11659,9767,2191,Total,Considered,640,640,0.837721932,187,New Jersey Athletic Conference,Rowan University,1877,Rowan University,NJ,Glassboro,8028,14647,https://www.rowan.edu/,15700,25564,21,0.7782,1216,5,22185,NA,28933,NA,latest,Rowan
290,596555,2025,Gonzaga,922,WCC,1,16779,260,260,235316,Gonzaga University,WA,47.666531,-117.400625,https://web3.ncaa.org/aprsearch/gsrsearch,Yes,Yes,No,No,136,5352,Undergraduate,Full-time,$110 ,25074,41075,8853,6742,1311,Total,Considered,690,690,0.761549757,136,West Coast Conference,Gonzaga University,3362,Gonzaga University,WA,Spokane,99258-0001,5098,https://www.gonzaga.edu/,53500,53500,12,0.7596,1316,5,NA,36371,NA,43615,latest,Gonzaga
292,596710,2025,Grambling,916,SWAC,1,16779,261,261,159009,Grambling State University,LA,32.523797,-92.713245,www.gram.edu/offices/pair/docs/Athletic Graduation Rates.pdf,Yes,Yes,No,No,133,4193,Undergraduate,Full-time,$110 ,1856,22408,7676,2390,750,Total,Considered,520,520,0.311360083,133,Southwestern Athletic Conference,Grambling State University,1229,Grambling State University,LA,Grambling,71245,4144,www.gram.edu/,7683,16706,32,0.2368,955,5,19125,NA,24356,NA,latest,Grambling
294,596889,2025,Grand Valley St.,854,GLIAC,2,16779,262,262,170082,Grand Valley State University,MI,42.963001,-85.889826,https://web3.ncaa.org/aprsearch/asrsearch,Yes,Yes,No,No,144,17682,Undergraduate,Full-time,$110 ,3883,21496,17163,15730,3807,Total,Recommended,NA,NA,0.916506438,144,Great Lakes Intercollegiate Athletic Conference,Grand Valley State University,1500,Grand Valley State University,MI,Allendale,49401-9403,19073,www.gvsu.edu/,14628,20820,31,0.9469,1079,5,17096,NA,23541,NA,latest,Grand Valley St.
295,597286,2025,Greensboro,842,USA South,3,16779,263,263,198598,Greensboro College,NC,36.071082,-79.800232,https://www.greensboro.edu/,Yes,Yes,No,No,171,628,Undergraduate,Full-time,$110 ,7090,26414,1248,1100,164,Total,Neither required nor recommended,NA,NA,0.881410256,171,USA South Athletic Conference,Greensboro College,2261,Greensboro College,NC,Greensboro,27401-1875,656,https://www.greensboro.edu/,20400,20400,11,0.9205,NA,3,NA,19314,NA,26481,latest,Greensboro
297,597287,2025,Grinnell,23119,MWC,3,16779,264,264,153384,Grinnell College,IA,41.747952,-92.722094,NA,Yes,Yes,No,No,182,1724,Undergraduate,Full-time,$110 ,40120,35578,10513,1108,471,Total,Required,750,780,0.105393323,182,Midwest Conference,Grinnell College,1049,Grinnell College,IA,Grinnell,50112-1690,1705,www.grinnell.edu/,64862,64862,33,0.1268,1486,5,NA,15608,NA,36265,latest,Grinnell
298,597288,2025,Grove City,907,PAC,3,16779,265,265,212805,Grove City College,PA,41.1558,-80.081481,NA,Yes,Yes,No,No,194,2207,NA,NA,NA,NA,NA,2082,1511,618,Total,Considered,690,692,0.725744476,194,Presidents' Athletic Conference,Grove City College,2703,Grove City College,PA,Grove City,16127-2104,2221,www.gcc.edu/,20890,20890,32,0.734,1261,5,NA,NA,NA,NA,latest,Grove City
300,597289,2025,Gustavus Adolphus,882,MIAC,3,16779,266,266,173647,Gustavus Adolphus College,MN,44.323626,-93.972196,NA,Yes,Yes,No,No,183,2200,Undergraduate,Full-time,$110 ,33254,29834,3799,2757,551,Total,Considered,NA,NA,0.725717294,183,Minnesota Intercollegiate Athletic Conference,Gustavus Adolphus College,1578,Gustavus Adolphus College,MN,Saint Peter,56082-1498,1930,gustavus.edu/,54310,54310,31,0.618,1320,5,NA,26895,NA,34227,latest,Gustavus Adolphus
302,597290,2025,Hamilton,12817,NESCAC,3,16779,267,267,191515,Hamilton College,NY,43.050245,-75.408195,NA,Yes,Yes,No,No,185,2124,Undergraduate,Full-time,$110 ,30132,46868,9380,1320,533,Total,Considered,760,780,0.140724947,185,New England Small College Athletic Conference,Hamilton College,2047,Hamilton College,NY,Clinton,13323,2045,https://www.hamilton.edu/,65740,65740,22,0.1177,1487,5,NA,28314,NA,50232,latest,Hamilton
303,597291,2025,Hamline,882,MIAC,3,16779,268,268,173665,Hamline University,MN,44.966246,-93.164479,NA,Yes,Yes,No,No,183,1882,Undergraduate,Full-time,$110 ,26783,29196,4493,3434,467,Total,Considered,670,610,0.764300022,183,Minnesota Intercollegiate Athletic Conference,Hamline University,1579,Hamline University,MN,Saint Paul,55104-1284,1685,https://www.hamline.edu/,48311,48311,11,0.8983,1197,5,NA,21385,NA,27061,latest,Hamline
304,597292,2025,Hampden-Sydney,903,ODAC,3,16779,269,269,232256,Hampden-Sydney College,VA,37.240615,-78.464216,NA,Yes,Yes,No,No,192,833,Undergraduate,Full-time,$110 ,31616,35252,2907,1070,222,Total,Considered,650,610,0.368077055,192,Old Dominion Athletic Conference,Hampden-Sydney College,3280,Hampden-Sydney College,VA,Hampden-Sydney,23943-0128,876,www.hsc.edu/,52388,52388,42,0.5013,1168,5,NA,24668,NA,33760,latest,Hampden-Sydney
306,597293,2025,Hardin-Simmons,14825,ASC,3,16779,271,271,225247,Hardin-Simmons University,TX,32.476434,-99.73564,NA,Yes,Yes,No,No,204,1392,Undergraduate,Full-time,$110 ,17215,28070,2195,2009,388,Total,Considered,590,580,0.915261959,204,American Southwest Conference,Hardin-Simmons University,3102,Hardin-Simmons University,TX,Abilene,79698-0001,1275,https://www.hsutx.edu/,31686,31686,12,0.9653,1064,5,NA,21031,NA,26442,latest,Hardin-Simmons
308,596977,2025,Hartford,839,CNE,3,16779,272,272,129525,University of Hartford,CT,41.798591,-72.715213,https://www.hartford.edu/about/offices-divisions/institutional-effectiveness/student-consumer-information.aspx,Yes,Yes,No,No,101,4040,Undergraduate,Full-time,$110 ,26422,34465,13459,10605,977,Total,Considered,650,620,0.787948585,101,America East,University of Hartford,546,University of Hartford,CT,West Hartford,06117-1599,4032,www.hartford.edu/,47647,47647,12,0.8301,1207,5,NA,29558,NA,33759,latest,Hartford
309,596556,2025,Harvard,865,Ivy League,1,16779,275,275,166027,Harvard University,MA,42.374471,-71.118313,https://gocrimson.com/news/2020/11/18/general-harvard-leads-in-ncaa-graduation-success-rate-in-2020-report,Yes,Yes,No,No,117,9221,Undergraduate,Full-time,$110 ,28658,52634,57786,2318,1951,Total,Considered,780,800,0.040113522,117,Ivy Group,Harvard University,1397,Harvard University,MA,Cambridge,2138,7755,www.harvard.edu/,59076,59076,12,0.0345,1553,5,NA,16816,NA,53571,latest,Harvard
310,597294,2025,Haverford,9683,Centennial,3,16779,276,276,212911,Haverford College,PA,40.007452,-75.305207,NA,Yes,Yes,No,No,165,1490,Undergraduate,Full-time,$110 ,41036,40384,5332,951,411,Total,Considered,760,780,0.178357089,165,Centennial Conference,Haverford College,2707,Haverford College,PA,Haverford,19041-1392,1421,https://www.haverford.edu/,68300,68300,21,0.1291,1498,5,NA,25210,NA,44137,latest,Haverford
311,596557,2025,Hawaii,904,Big West,1,16779,277,277,141574,University of Hawaii at Manoa,HI,21.298598,-157.818979,NA,Yes,Yes,No,No,109,12746,Undergraduate,Full-time,$110 ,3720,18465,19607,13721,2939,Total,Considered,660,630,0.699801091,109,Big West Conference,University of Hawaii at Manoa,786,University of Hawaii at Manoa,HI,Honolulu,96822-2217,14306,https://manoa.hawaii.edu/,12186,34218,11,0.6969,1157,5,13181,NA,20462,NA,latest,Hawaii
